~Version ---------------------------------------------------
VERS.   2.0 : CWLS log ASCII Standard -VERSION 2.0
WRAP.    NO : One line per depth step
DLM . SPACE : Column Data Section Delimiter
~Well ------------------------------------------------------
STRT.m                  2000.0 : START DEPTH
STOP.m      3199.9500000001212 : STOP DEPTH
STEP.m     0.15000000000009095 : STEP
NULL.                 -9999.25 : NULL VALUE
COMP.                          : COMPANY
WELL. pseudowell 2856667402688 : WELL
FLD .                          : FIELD
LOC .                          : LOCATION
PROV.                          : PROVINCE
CNTY.                          : COUNTY
STAT.                          : STATE
CTRY.                          : COUNTRY
SRVC.                          : SERVICE COMPANY
DATE.      2023-05-26 16:58:03 : DATE
UWI .                          : UNIQUE WELL ID
API .                          : API NUMBER
~Curve Information -----------------------------------------
DEPTH .m              : 
FACIES.dimensionless  : 
PHI   .fraction       : 
SW    .fraction       : 
Vclay .fraction       : 
~Params ----------------------------------------------------
~Other -----------------------------------------------------
Data exported from RazorBill, (C) LTrace, 2023
Input file: None
~ASCII -----------------------------------------------------
# ...
 2150.15000    1.00000    0.10401    0.94831    0.43111
 2150.30000    1.00000    0.10387    0.94856    0.42721
 2150.45000    1.00000    0.10377    0.94920    0.42439
 2150.60000    1.00000    0.09661    0.94919    0.42347
 2150.75000    1.00000    0.09610    0.94827    0.42125
 2150.90000    1.00000    0.09479    0.94858    0.42337
 2151.05000    2.00000    0.16174    0.95000    0.03367
 2151.20000    2.00000    0.16937    0.95000    0.03618
 2151.35000    2.00000    0.17455    0.95000    0.02539
 2151.50000    2.00000    0.17769    0.95000    0.02693
 2151.65000    2.00000    0.20264    0.95000    0.02464
 2151.80000    2.00000    0.19631    0.95000    0.01125
 2151.95000    2.00000    0.19948    0.95000    0.01363
 2152.10000    2.00000    0.21146    0.95000    0.01468
 2152.25000    2.00000    0.20373    0.95000    0.01209
 2152.40000    1.00000    0.10050    0.94914    0.45850
 2152.55000    1.00000    0.09585    0.94972    0.45291
 2152.70000    2.00000    0.21218    0.95000    0.01027
 2152.85000    2.00000    0.21678    0.95000    0.01050
 2153.00000    1.00000    0.08815    0.94958    0.44692
 2153.15000    1.00000    0.09414    0.94904    0.44213
 2153.30000    1.00000    0.09234    0.94940    0.45503
 2153.45000    2.00000    0.20602    0.95000    0.00229
 2153.60000    2.00000    0.20287    0.95000   -0.00224
 2153.75000    2.00000    0.20594    0.95000   -0.00656
 2153.90000    2.00000    0.19138    0.95000   -0.00726
 2154.05000    2.00000    0.18632    0.95000   -0.01058
 2154.20000    2.00000    0.19214    0.95000   -0.01516
 2154.35000    1.00000    0.07856    0.94773    0.46588
 2154.50000    1.00000    0.07796    0.94726    0.46950
 2154.65000    1.00000    0.07460    0.94746    0.46531
 2154.80000    1.00000    0.07739    0.94848    0.47030
 2154.95000    1.00000    0.07425    0.94853    0.46348
 2155.10000    1.00000    0.07597    0.94848    0.45633
 2155.25000    1.00000    0.07833    0.94798    0.46041
 2155.40000    1.00000    0.07079    0.94710    0.46371
 2155.55000    1.00000    0.06742    0.94697    0.46503
 2155.70000    1.00000    0.06671    0.94676    0.46661
 2155.85000    1.00000    0.07188    0.94652    0.46915
 2156.00000    1.00000    0.07532    0.94627    0.47105
 2156.15000    1.00000    0.07877    0.94600    0.46759
 2156.30000    1.00000    0.07901    0.94558    0.46995
 2156.45000    1.00000    0.08497    0.94567    0.47087
 2156.60000    1.00000    0.08118    0.94563    0.46823
 2156.75000    1.00000    0.07892    0.94510    0.46815
 2156.90000    1.00000    0.07876    0.94500    0.46654
 2157.05000    1.00000    0.07995    0.94543    0.45793
 2157.20000    1.00000    0.07828    0.94531    0.46198
 2157.35000    1.00000    0.07740    0.94517    0.46479
 2157.50000    1.00000    0.07560    0.94529    0.46553
 2157.65000    1.00000    0.08217    0.94589    0.46270
 2157.80000    1.00000    0.08167    0.94601    0.46357
 2157.95000    1.00000    0.07791    0.94656    0.46561
 2158.10000    1.00000    0.08010    0.94636    0.46258
 2158.25000    1.00000    0.08438    0.94668    0.46692
 2158.40000    1.00000    0.07836    0.94733    0.46598
 2158.55000    1.00000    0.08067    0.94740    0.45860
 2158.70000    1.00000    0.08955    0.94733    0.46493
 2158.85000    1.00000    0.07959    0.94745    0.47405
 2159.00000    1.00000    0.08535    0.94668    0.46916
 2159.15000    1.00000    0.09037    0.94671    0.47036
 2159.30000    1.00000    0.08149    0.94603    0.47472
 2159.45000    1.00000    0.08022    0.94604    0.46904
 2159.60000    1.00000    0.08471    0.94660    0.46126
 2159.75000    1.00000    0.07922    0.94704    0.46195
 2159.90000    1.00000    0.08167    0.94673    0.46515
 2160.05000    1.00000    0.08546    0.94661    0.46959
 2160.20000    1.00000    0.08609    0.94650    0.47269
 2160.35000    1.00000    0.08328    0.94683    0.47274
 2160.50000    1.00000    0.08001    0.94708    0.46981
 2160.65000    1.00000    0.07905    0.94685    0.47474
 2160.80000    1.00000    0.08220    0.94579    0.47280
 2160.95000    1.00000    0.08147    0.94630    0.46466
 2161.10000    1.00000    0.08013    0.94696    0.46509
 2161.25000    1.00000    0.08224    0.94687    0.47004
 2161.40000    1.00000    0.08314    0.94726    0.46573
 2161.55000    1.00000    0.08284    0.94753    0.46066
 2161.70000    1.00000    0.08552    0.94807    0.46261
 2161.85000    1.00000    0.08109    0.94843    0.45944
 2162.00000    1.00000    0.08340    0.94821    0.46503
 2162.15000    1.00000    0.07764    0.94809    0.46517
 2162.30000    1.00000    0.07854    0.94831    0.46268
 2162.45000    1.00000    0.07718    0.94827    0.46684
 2162.60000    1.00000    0.07822    0.94860    0.46073
 2162.75000    1.00000    0.08643    0.94841    0.45827
 2162.90000    1.00000    0.09203    0.94827    0.45956
 2163.05000    1.00000    0.09293    0.94817    0.45809
 2163.20000    1.00000    0.10116    0.94813    0.45694
 2163.35000    1.00000    0.10799    0.94807    0.46296
 2163.50000    1.00000    0.10255    0.94778    0.46606
 2163.65000    1.00000    0.09833    0.94770    0.47540
 2163.80000    1.00000    0.09659    0.94784    0.48312
 2163.95000    1.00000    0.09129    0.94807    0.48180
 2164.10000    1.00000    0.09034    0.94853    0.48475
 2164.25000    1.00000    0.08766    0.94872    0.48506
 2164.40000    1.00000    0.09110    0.94937    0.48719
 2164.55000    1.00000    0.09137    0.94913    0.48231
 2164.70000    1.00000    0.10015    0.94818    0.48577
 2164.85000    1.00000    0.10059    0.94824    0.47808
 2165.00000    1.00000    0.10471    0.94808    0.47816
 2165.15000    1.00000    0.10224    0.94849    0.47520
 2165.30000    1.00000    0.09413    0.94880    0.46519
 2165.45000    1.00000    0.09971    0.94836    0.46852
 2165.60000    1.00000    0.10107    0.94813    0.47269
 2165.75000    1.00000    0.10028    0.94814    0.47289
 2165.90000    1.00000    0.09670    0.94821    0.46529
 2166.05000    1.00000    0.09205    0.94821    0.47244
 2166.20000    1.00000    0.09677    0.94776    0.47521
 2166.35000    1.00000    0.09855    0.94784    0.47601
 2166.50000    1.00000    0.10233    0.94777    0.48348
 2166.65000    1.00000    0.10292    0.94722    0.48799
 2166.80000    1.00000    0.10426    0.94687    0.48037
 2166.95000    1.00000    0.10746    0.94645    0.48387
 2167.10000    1.00000    0.10957    0.94662    0.48234
 2167.25000    1.00000    0.10773    0.94656    0.48468
 2167.40000    1.00000    0.10784    0.94566    0.48077
 2167.55000    1.00000    0.10172    0.94558    0.47735
 2167.70000    1.00000    0.10295    0.94503    0.48612
 2167.85000    1.00000    0.09649    0.94519    0.48409
 2168.00000    1.00000    0.09742    0.94597    0.48968
 2168.15000    1.00000    0.09369    0.94635    0.48586
 2168.30000    1.00000    0.10357    0.94658    0.47987
 2168.45000    1.00000    0.10766    0.94587    0.48036
 2168.60000    1.00000    0.10656    0.94554    0.47766
 2168.75000    1.00000    0.10618    0.94498    0.47876
 2168.90000    1.00000    0.11144    0.94461    0.47963
 2169.05000    1.00000    0.11321    0.94546    0.48441
 2169.20000    1.00000    0.11142    0.94537    0.48800
 2169.35000    1.00000    0.10918    0.94623    0.48321
 2169.50000    1.00000    0.10861    0.94546    0.48123
 2169.65000    1.00000    0.11380    0.94594    0.47778
 2169.80000    1.00000    0.11213    0.94624    0.47737
 2169.95000    1.00000    0.11139    0.94695    0.46911
 2170.10000    1.00000    0.11110    0.94605    0.46690
 2170.25000    1.00000    0.11540    0.94617    0.46308
 2170.40000    1.00000    0.11632    0.94655    0.46718
 2170.55000    1.00000    0.11619    0.94663    0.46831
 2170.70000    1.00000    0.11606    0.94710    0.47136
 2170.85000    1.00000    0.11462    0.94714    0.47494
 2171.00000    1.00000    0.11632    0.94736    0.47590
 2171.15000    1.00000    0.11817    0.94624    0.47792
 2171.30000    1.00000    0.11976    0.94673    0.47546
 2171.45000    1.00000    0.12542    0.94577    0.48105
