~Version ---------------------------------------------------
VERS.   2.0 : CWLS log ASCII Standard -VERSION 2.0
WRAP.    NO : One line per depth step
DLM . SPACE : Column Data Section Delimiter
~Well ------------------------------------------------------
STRT.m                  2000.0 : START DEPTH
STOP.m      3199.9500000001212 : STOP DEPTH
STEP.m     0.15000000000009095 : STEP
NULL.                 -9999.25 : NULL VALUE
COMP.                          : COMPANY
WELL. pseudowell 2856667402688 : WELL
FLD .                          : FIELD
LOC .                          : LOCATION
PROV.                          : PROVINCE
CNTY.                          : COUNTY
STAT.                          : STATE
CTRY.                          : COUNTRY
SRVC.                          : SERVICE COMPANY
DATE.      2023-05-26 16:58:03 : DATE
UWI .                          : UNIQUE WELL ID
API .                          : API NUMBER
~Curve Information -----------------------------------------
DEPTH .m              : 
FACIES.dimensionless  : 
PHI   .fraction       : 
SW    .fraction       : 
Vclay .fraction       : 
~Params ----------------------------------------------------
~Other -----------------------------------------------------
Data exported from RazorBill, (C) LTrace, 2023
Input file: None
~ASCII -----------------------------------------------------
# ...
 2085.80000    1.00000    0.10153    0.94952    0.42434
 2085.95000    1.00000    0.09867    0.94968    0.42098
 2086.10000    1.00000    0.09769    0.94949    0.41215
 2086.25000    1.00000    0.09636    0.94926    0.41526
 2086.40000    1.00000    0.09572    0.94961    0.41816
 2086.55000    1.00000    0.09308    0.94863    0.41266
 2086.70000    1.00000    0.09870    0.94957    0.41682
 2086.85000    1.00000    0.09799    0.95011    0.41904
 2087.00000    1.00000    0.09738    0.94981    0.42786
 2087.15000    1.00000    0.10448    0.94971    0.43086
 2087.30000    1.00000    0.10824    0.95045    0.43419
 2087.45000    1.00000    0.10868    0.95067    0.43783
 2087.60000    1.00000    0.11378    0.95076    0.44493
 2087.75000    1.00000    0.11533    0.95071    0.44129
 2087.90000    1.00000    0.11107    0.95077    0.44209
 2088.05000    1.00000    0.11126    0.95077    0.44605
 2088.20000    1.00000    0.11068    0.95099    0.44451
 2088.35000    1.00000    0.10682    0.95032    0.44374
 2088.50000    1.00000    0.11018    0.95033    0.44204
 2088.65000    1.00000    0.10846    0.95056    0.43636
 2088.80000    1.00000    0.11303    0.95011    0.43327
 2088.95000    1.00000    0.10643    0.95000    0.43247
 2089.10000    1.00000    0.10034    0.94972    0.43405
 2089.25000    1.00000    0.10357    0.95055    0.43906
 2089.40000    1.00000    0.09954    0.95005    0.44100
 2089.55000    1.00000    0.10604    0.94993    0.43693
 2089.70000    1.00000    0.10582    0.94996    0.44642
 2089.85000    1.00000    0.10327    0.95047    0.43291
 2090.00000    1.00000    0.10620    0.95038    0.43785
 2090.15000    1.00000    0.10478    0.95050    0.43819
 2090.30000    1.00000    0.10614    0.95030    0.43919
 2090.45000    1.00000    0.11240    0.95074    0.43975
 2090.60000    1.00000    0.10607    0.95054    0.44140
 2090.75000    1.00000    0.10528    0.95078    0.44029
 2090.90000    1.00000    0.10880    0.95095    0.44018
 2091.05000    1.00000    0.11126    0.95037    0.43709
 2091.20000    1.00000    0.11207    0.94939    0.42449
 2091.35000    1.00000    0.11753    0.94943    0.42594
 2091.50000    1.00000    0.12098    0.95057    0.42344
 2091.65000    1.00000    0.12077    0.95017    0.42266
 2091.80000    1.00000    0.11723    0.95023    0.42332
 2091.95000    1.00000    0.11380    0.95034    0.42846
 2092.10000    1.00000    0.12018    0.95035    0.43449
 2092.25000    1.00000    0.12124    0.94969    0.43758
 2092.40000    1.00000    0.11382    0.94998    0.44105
 2092.55000    1.00000    0.11382    0.95125    0.43811
 2092.70000    1.00000    0.11284    0.95071    0.43392
 2092.85000    1.00000    0.12029    0.95043    0.43062
 2093.00000    1.00000    0.11837    0.95063    0.43237
 2093.15000    1.00000    0.11817    0.95022    0.43336
 2093.30000    1.00000    0.11597    0.94987    0.42914
 2093.45000    1.00000    0.11860    0.94925    0.43194
 2093.60000    1.00000    0.12162    0.94979    0.43269
 2093.75000    1.00000    0.11898    0.94978    0.43457
 2093.90000    1.00000    0.11881    0.94972    0.41978
 2094.05000    1.00000    0.11760    0.94984    0.42430
 2094.20000    1.00000    0.11981    0.94984    0.42460
 2094.35000    1.00000    0.12553    0.95106    0.42741
 2094.50000    1.00000    0.12143    0.95094    0.42537
 2094.65000    1.00000    0.12440    0.95079    0.42462
 2094.80000    1.00000    0.12216    0.94974    0.42314
 2094.95000    1.00000    0.12596    0.94995    0.42684
 2095.10000    1.00000    0.12187    0.94940    0.43043
 2095.25000    1.00000    0.11088    0.94837    0.43067
 2095.40000    1.00000    0.11563    0.94783    0.43315
 2095.55000    1.00000    0.11710    0.94713    0.43102
 2095.70000    1.00000    0.11284    0.94646    0.43516
 2095.85000    1.00000    0.11308    0.94627    0.44000
 2096.00000    1.00000    0.11759    0.94640    0.43399
 2096.15000    1.00000    0.12271    0.94663    0.43784
 2096.30000    1.00000    0.12012    0.94757    0.43533
 2096.45000    1.00000    0.11860    0.94678    0.43926
 2096.60000    1.00000    0.11565    0.94711    0.44099
 2096.75000    1.00000    0.11183    0.94714    0.43845
 2096.90000    1.00000    0.11360    0.94811    0.43380
 2097.05000    1.00000    0.11800    0.94814    0.44741
 2097.20000    1.00000    0.11408    0.94837    0.45214
 2097.35000    1.00000    0.11488    0.94828    0.44634
 2097.50000    1.00000    0.11218    0.94812    0.45016
 2097.65000    1.00000    0.10324    0.94784    0.43919
 2097.80000    1.00000    0.09880    0.94818    0.44099
 2097.95000    1.00000    0.10737    0.94909    0.44401
 2098.10000    1.00000    0.10835    0.94970    0.44481
 2098.25000    1.00000    0.10350    0.94921    0.45348
 2098.40000    1.00000    0.10465    0.94919    0.44948
 2098.55000    1.00000    0.10431    0.94965    0.44868
 2098.70000    1.00000    0.10187    0.94965    0.44757
 2098.85000    1.00000    0.10240    0.95072    0.44825
 2099.00000    1.00000    0.10317    0.95123    0.44937
 2099.15000    1.00000    0.10170    0.95171    0.45346
 2099.30000    1.00000    0.09974    0.95160    0.45084
 2099.45000    1.00000    0.10187    0.95129    0.44524
 2099.60000    1.00000    0.10079    0.95116    0.44407
 2099.75000    1.00000    0.09786    0.95014    0.44809
 2099.90000    1.00000    0.09703    0.94943    0.44491
 2100.05000    1.00000    0.09320    0.94920    0.44238
 2100.20000    1.00000    0.08967    0.94940    0.44421
 2100.35000    1.00000    0.09770    0.94934    0.44114
 2100.50000    1.00000    0.10031    0.94922    0.44634
 2100.65000    1.00000    0.08859    0.94985    0.44979
 2100.80000    1.00000    0.09332    0.95027    0.45057
 2100.95000    1.00000    0.09858    0.95124    0.44643
 2101.10000    1.00000    0.10339    0.95099    0.45052
 2101.25000    1.00000    0.10761    0.95178    0.45408
 2101.40000    1.00000    0.10775    0.95157    0.44671
 2101.55000    1.00000    0.09872    0.95174    0.44831
 2101.70000    1.00000    0.09962    0.95215    0.44734
 2101.85000    1.00000    0.10057    0.95178    0.44848
 2102.00000    1.00000    0.09548    0.95187    0.43984
 2102.15000    1.00000    0.09368    0.95193    0.43681
 2102.30000    1.00000    0.09813    0.95241    0.44540
 2102.45000    1.00000    0.10086    0.95298    0.44782
 2102.60000    1.00000    0.10583    0.95260    0.44778
 2102.75000    1.00000    0.10703    0.95269    0.44650
 2102.90000    1.00000    0.09935    0.95160    0.44796
 2103.05000    1.00000    0.09268    0.95122    0.44874
 2103.20000    1.00000    0.08618    0.95177    0.45077
 2103.35000    1.00000    0.09254    0.95153    0.44751
 2103.50000    1.00000    0.09260    0.95128    0.44788
 2103.65000    1.00000    0.09152    0.95032    0.44487
 2103.80000    1.00000    0.09035    0.95025    0.44566
 2103.95000    1.00000    0.09335    0.95013    0.44571
 2104.10000    1.00000    0.09069    0.94971    0.44971
 2104.25000    1.00000    0.09415    0.95008    0.45027
 2104.40000    1.00000    0.09582    0.95000    0.45118
 2104.55000    1.00000    0.09705    0.95051    0.45355
 2104.70000    1.00000    0.09746    0.95102    0.44754
 2104.85000    1.00000    0.09169    0.95046    0.44227
 2105.00000    1.00000    0.09501    0.95078    0.43409
 2105.15000    1.00000    0.09703    0.95096    0.43681
 2105.30000    1.00000    0.09469    0.95142    0.43757
 2105.45000    1.00000    0.09224    0.95052    0.44060
 2105.60000    1.00000    0.09270    0.95120    0.43951
 2105.75000    1.00000    0.08734    0.95201    0.43881
 2105.90000    1.00000    0.08915    0.95302    0.43496
 2106.05000    1.00000    0.08616    0.95289    0.44135
 2106.20000    1.00000    0.08299    0.95321    0.44331
 2106.35000    1.00000    0.08106    0.95374    0.43659
 2106.50000    1.00000    0.08055    0.95392    0.43217
 2106.65000    1.00000    0.08113    0.95338    0.43365
 2106.80000    1.00000    0.07916    0.95314    0.43586
 2106.95000    1.00000    0.07965    0.95301    0.43472
 2107.10000    1.00000    0.08363    0.95280    0.43408
