~Version ---------------------------------------------------
VERS.   2.0 : CWLS log ASCII Standard -VERSION 2.0
WRAP.    NO : One line per depth step
DLM . SPACE : Column Data Section Delimiter
~Well ------------------------------------------------------
STRT.m                  2000.0 : START DEPTH
STOP.m      3199.9500000001212 : STOP DEPTH
STEP.m     0.15000000000009095 : STEP
NULL.                 -9999.25 : NULL VALUE
COMP.                          : COMPANY
WELL. pseudowell 2856667402688 : WELL
FLD .                          : FIELD
LOC .                          : LOCATION
PROV.                          : PROVINCE
CNTY.                          : COUNTY
STAT.                          : STATE
CTRY.                          : COUNTRY
SRVC.                          : SERVICE COMPANY
DATE.      2023-05-26 16:58:03 : DATE
UWI .                          : UNIQUE WELL ID
API .                          : API NUMBER
~Curve Information -----------------------------------------
DEPTH .m              : 
FACIES.dimensionless  : 
PHI   .fraction       : 
SW    .fraction       : 
Vclay .fraction       : 
~Params ----------------------------------------------------
~Other -----------------------------------------------------
Data exported from RazorBill, (C) LTrace, 2023
Input file: None
~ASCII -----------------------------------------------------
# ...
 2557.50000    1.00000    0.10782    0.94713    0.43367
 2557.65000    1.00000    0.10991    0.94685    0.43089
 2557.80000    1.00000    0.10910    0.94705    0.43723
 2557.95000    1.00000    0.10255    0.94941    0.43365
 2558.10000    1.00000    0.10651    0.94713    0.42749
 2558.25000    1.00000    0.10645    0.94574    0.42690
 2558.40000    1.00000    0.10212    0.94671    0.42114
 2558.55000    1.00000    0.09516    0.94848    0.42617
 2558.70000    1.00000    0.09502    0.94959    0.42771
 2558.85000    1.00000    0.09431    0.95061    0.42945
 2559.00000    1.00000    0.09039    0.94980    0.43641
 2559.15000    1.00000    0.10052    0.95057    0.44114
 2559.30000    1.00000    0.09545    0.94854    0.44482
 2559.45000    1.00000    0.09581    0.94709    0.44803
 2559.60000    1.00000    0.09371    0.94765    0.44522
 2559.75000    1.00000    0.09721    0.94993    0.44717
 2559.90000    1.00000    0.09585    0.95279    0.43698
 2560.05000    1.00000    0.09175    0.95657    0.44073
 2560.20000    1.00000    0.09281    0.95532    0.44413
 2560.35000    1.00000    0.09431    0.95465    0.45247
 2560.50000    1.00000    0.09076    0.95322    0.45240
 2560.65000    1.00000    0.09023    0.95275    0.45525
 2560.80000    1.00000    0.09388    0.95049    0.46077
 2560.95000    1.00000    0.09289    0.94945    0.46142
 2561.10000    1.00000    0.08558    0.94855    0.46891
 2561.25000    1.00000    0.09127    0.94693    0.46655
 2561.40000    1.00000    0.09192    0.95048    0.46195
 2561.55000    1.00000    0.09495    0.94917    0.46764
 2561.70000    1.00000    0.10088    0.94797    0.46807
 2561.85000    1.00000    0.10255    0.94787    0.46236
 2562.00000    1.00000    0.10409    0.94891    0.46887
 2562.15000    1.00000    0.10064    0.95173    0.46627
 2562.30000    1.00000    0.11052    0.94959    0.46263
 2562.45000    1.00000    0.11227    0.95045    0.46625
 2562.60000    1.00000    0.11656    0.95118    0.46973
 2562.75000    1.00000    0.11940    0.95326    0.47432
 2562.90000    1.00000    0.11349    0.95093    0.47588
 2563.05000    1.00000    0.11318    0.95239    0.47114
 2563.20000    1.00000    0.11147    0.95338    0.47871
 2563.35000    1.00000    0.10213    0.95271    0.47622
 2563.50000    1.00000    0.10266    0.95378    0.47680
 2563.65000    1.00000    0.10153    0.95405    0.48244
 2563.80000    1.00000    0.09624    0.95394    0.48460
 2563.95000    1.00000    0.09825    0.95178    0.48064
 2564.10000    1.00000    0.09666    0.95225    0.48090
 2564.25000    1.00000    0.09717    0.95188    0.47610
 2564.40000    1.00000    0.09676    0.95151    0.47571
 2564.55000    1.00000    0.09885    0.94948    0.47560
 2564.70000    1.00000    0.09846    0.94702    0.47424
 2564.85000    1.00000    0.09959    0.94838    0.47248
 2565.00000    1.00000    0.09470    0.94883    0.47229
 2565.15000    1.00000    0.09725    0.94882    0.46970
 2565.30000    1.00000    0.08764    0.94792    0.46832
 2565.45000    1.00000    0.08968    0.94915    0.47134
 2565.60000    1.00000    0.08831    0.95139    0.46810
 2565.75000    1.00000    0.08092    0.95520    0.47582
 2565.90000    1.00000    0.08026    0.95364    0.47453
 2566.05000    1.00000    0.09195    0.95377    0.47267
 2566.20000    1.00000    0.08501    0.95079    0.46883
 2566.35000    1.00000    0.08501    0.95187    0.46212
 2566.50000    1.00000    0.08344    0.94956    0.46008
 2566.65000    1.00000    0.08543    0.94994    0.46398
 2566.80000    1.00000    0.08016    0.94887    0.45618
 2566.95000    1.00000    0.08229    0.94998    0.44948
 2567.10000    1.00000    0.07917    0.94967    0.44246
 2567.25000    1.00000    0.08738    0.95046    0.43875
 2567.40000    1.00000    0.08304    0.95062    0.43585
 2567.55000    1.00000    0.08155    0.95122    0.43431
 2567.70000    1.00000    0.07883    0.95278    0.43582
 2567.85000    1.00000    0.07639    0.95162    0.44022
 2568.00000    1.00000    0.08120    0.95049    0.43818
 2568.15000    1.00000    0.08960    0.94991    0.43385
 2568.30000    1.00000    0.09008    0.94907    0.43207
 2568.45000    1.00000    0.08988    0.94573    0.43369
 2568.60000    1.00000    0.08578    0.94561    0.43415
 2568.75000    1.00000    0.08171    0.94606    0.43156
 2568.90000    1.00000    0.07687    0.94584    0.42564
 2569.05000    1.00000    0.07719    0.94567    0.43265
 2569.20000    1.00000    0.07926    0.94497    0.43270
 2569.35000    1.00000    0.07763    0.94404    0.43525
 2569.50000    1.00000    0.07364    0.94367    0.43541
 2569.65000    1.00000    0.07607    0.94411    0.43519
 2569.80000    1.00000    0.07826    0.94417    0.43604
 2569.95000    1.00000    0.08092    0.94240    0.43956
 2570.10000    1.00000    0.08700    0.94324    0.44176
 2570.25000    1.00000    0.08910    0.94331    0.44256
 2570.40000    1.00000    0.09410    0.94389    0.44254
 2570.55000    1.00000    0.09556    0.94397    0.44548
 2570.70000    1.00000    0.09037    0.94308    0.44807
 2570.85000    1.00000    0.09280    0.94447    0.44709
 2571.00000    1.00000    0.08925    0.94422    0.45443
 2571.15000    1.00000    0.08499    0.94476    0.45984
 2571.30000    1.00000    0.09162    0.94779    0.45908
 2571.45000    1.00000    0.10167    0.94741    0.45605
 2571.60000    1.00000    0.09947    0.94724    0.45945
 2571.75000    1.00000    0.10469    0.94713    0.45878
 2571.90000    2.00000    0.22076    0.95000    0.06487
 2572.05000    2.00000    0.23141    0.95000    0.06178
 2572.20000    2.00000    0.22697    0.95000    0.05794
 2572.35000    2.00000    0.23698    0.95000    0.05376
 2572.50000    2.00000    0.23019    0.95000    0.06418
 2572.65000    2.00000    0.24782    0.95000    0.06305
 2572.80000    2.00000    0.24638    0.95000    0.05820
 2572.95000    2.00000    0.22975    0.95000    0.05932
 2573.10000    2.00000    0.22978    0.95000    0.05804
 2573.25000    2.00000    0.23640    0.95000    0.06231
 2573.40000    2.00000    0.21621    0.95000    0.05635
 2573.55000    2.00000    0.20425    0.95000    0.05679
 2573.70000    2.00000    0.20368    0.95000    0.05206
 2573.85000    2.00000    0.19493    0.95000    0.04811
 2574.00000    2.00000    0.17944    0.95000    0.05665
 2574.15000    2.00000    0.18872    0.95000    0.06037
 2574.30000    2.00000    0.20118    0.95000    0.06783
 2574.45000    2.00000    0.20032    0.95000    0.06291
 2574.60000    2.00000    0.19258    0.95000    0.06915
 2574.75000    2.00000    0.20189    0.95000    0.07362
 2574.90000    2.00000    0.20593    0.95000    0.07363
 2575.05000    2.00000    0.19793    0.95000    0.07199
 2575.20000    2.00000    0.19774    0.95000    0.06886
 2575.35000    2.00000    0.20518    0.95000    0.07309
 2575.50000    2.00000    0.20884    0.95000    0.07021
 2575.65000    2.00000    0.20601    0.95000    0.07364
 2575.80000    2.00000    0.20760    0.95000    0.07311
 2575.95000    2.00000    0.19698    0.95000    0.07232
 2576.10000    2.00000    0.18247    0.95000    0.06208
 2576.25000    2.00000    0.18691    0.95000    0.06279
 2576.40000    2.00000    0.19958    0.95000    0.06177
 2576.55000    2.00000    0.19252    0.95000    0.06398
 2576.70000    2.00000    0.17773    0.95000    0.05950
 2576.85000    2.00000    0.17322    0.95000    0.05984
 2577.00000    2.00000    0.17639    0.95000    0.05602
 2577.15000    2.00000    0.16774    0.95000    0.05301
 2577.30000    2.00000    0.18301    0.95000    0.05087
 2577.45000    2.00000    0.19024    0.95000    0.05400
 2577.60000    2.00000    0.18421    0.95000    0.06375
 2577.75000    2.00000    0.19049    0.95000    0.06863
 2577.90000    2.00000    0.20794    0.95000    0.06554
 2578.05000    2.00000    0.20707    0.95000    0.06719
 2578.20000    2.00000    0.21350    0.95000    0.06834
 2578.35000    2.00000    0.19505    0.95000    0.06193
 2578.50000    2.00000    0.19260    0.95000    0.06712
 2578.65000    2.00000    0.18333    0.95000    0.06431
 2578.80000    2.00000    0.18851    0.95000    0.07205
