~Version ---------------------------------------------------
VERS.   2.0 : CWLS log ASCII Standard -VERSION 2.0
WRAP.    NO : One line per depth step
DLM . SPACE : Column Data Section Delimiter
~Well ------------------------------------------------------
STRT.m                  2000.0 : START DEPTH
STOP.m      3199.9500000001212 : STOP DEPTH
STEP.m     0.15000000000009095 : STEP
NULL.                 -9999.25 : NULL VALUE
COMP.                          : COMPANY
WELL. pseudowell 2856667402688 : WELL
FLD .                          : FIELD
LOC .                          : LOCATION
PROV.                          : PROVINCE
CNTY.                          : COUNTY
STAT.                          : STATE
CTRY.                          : COUNTRY
SRVC.                          : SERVICE COMPANY
DATE.      2023-05-26 16:58:03 : DATE
UWI .                          : UNIQUE WELL ID
API .                          : API NUMBER
~Curve Information -----------------------------------------
DEPTH .m              : 
FACIES.dimensionless  : 
PHI   .fraction       : 
SW    .fraction       : 
Vclay .fraction       : 
~Params ----------------------------------------------------
~Other -----------------------------------------------------
Data exported from RazorBill, (C) LTrace, 2023
Input file: None
~ASCII -----------------------------------------------------
# ...
 2471.70000    1.00000    0.10013    0.94778    0.46589
 2471.85000    1.00000    0.10175    0.94800    0.45471
 2472.00000    1.00000    0.10713    0.95040    0.45510
 2472.15000    1.00000    0.10705    0.95152    0.45421
 2472.30000    1.00000    0.10693    0.95104    0.45134
 2472.45000    1.00000    0.11011    0.95093    0.45153
 2472.60000    1.00000    0.10555    0.95160    0.46234
 2472.75000    1.00000    0.10610    0.95074    0.45703
 2472.90000    1.00000    0.10159    0.94964    0.46009
 2473.05000    1.00000    0.10145    0.94959    0.45732
 2473.20000    1.00000    0.10727    0.94864    0.45492
 2473.35000    1.00000    0.10601    0.94971    0.45311
 2473.50000    1.00000    0.10169    0.94745    0.46190
 2473.65000    1.00000    0.10104    0.94704    0.46672
 2473.80000    1.00000    0.10100    0.94797    0.46862
 2473.95000    1.00000    0.10265    0.94724    0.46343
 2474.10000    1.00000    0.10567    0.94997    0.46557
 2474.25000    1.00000    0.10535    0.94835    0.46412
 2474.40000    1.00000    0.10399    0.95048    0.46468
 2474.55000    1.00000    0.10439    0.95315    0.45904
 2474.70000    1.00000    0.10738    0.95499    0.46124
 2474.85000    1.00000    0.09774    0.95545    0.46135
 2475.00000    1.00000    0.10253    0.95409    0.46502
 2475.15000    1.00000    0.10443    0.95778    0.47335
 2475.30000    1.00000    0.10336    0.95799    0.47471
 2475.45000    1.00000    0.09683    0.95769    0.47034
 2475.60000    1.00000    0.09545    0.95903    0.47345
 2475.75000    1.00000    0.09330    0.95422    0.46455
 2475.90000    1.00000    0.09248    0.95482    0.46205
 2476.05000    1.00000    0.09646    0.95527    0.46862
 2476.20000    1.00000    0.09571    0.95696    0.46649
 2476.35000    1.00000    0.09522    0.95849    0.46547
 2476.50000    1.00000    0.09990    0.95707    0.46694
 2476.65000    1.00000    0.10634    0.95634    0.47194
 2476.80000    1.00000    0.11211    0.95693    0.46712
 2476.95000    1.00000    0.11641    0.95606    0.46608
 2477.10000    1.00000    0.11293    0.95777    0.46087
 2477.25000    1.00000    0.11439    0.95645    0.47173
 2477.40000    1.00000    0.11447    0.95681    0.47035
 2477.55000    1.00000    0.10864    0.95735    0.46787
 2477.70000    1.00000    0.11567    0.95894    0.46624
 2477.85000    1.00000    0.11855    0.95854    0.47060
 2478.00000    1.00000    0.12066    0.95722    0.46066
 2478.15000    1.00000    0.11307    0.95780    0.46286
 2478.30000    1.00000    0.10895    0.96089    0.45908
 2478.45000    1.00000    0.10543    0.96260    0.45903
 2478.60000    1.00000    0.11075    0.96377    0.46628
 2478.75000    1.00000    0.11390    0.96184    0.46262
 2478.90000    1.00000    0.10962    0.96013    0.46535
 2479.05000    1.00000    0.10643    0.96038    0.45962
 2479.20000    1.00000    0.09760    0.95909    0.45481
 2479.35000    1.00000    0.10185    0.95755    0.46568
 2479.50000    1.00000    0.09611    0.95712    0.46628
 2479.65000    1.00000    0.09163    0.95712    0.46477
 2479.80000    1.00000    0.09282    0.95890    0.46846
 2479.95000    1.00000    0.09327    0.96003    0.46775
 2480.10000    1.00000    0.09070    0.95973    0.46458
 2480.25000    1.00000    0.09098    0.95887    0.47107
 2480.40000    1.00000    0.09252    0.95822    0.47357
 2480.55000    1.00000    0.09132    0.95742    0.47750
 2480.70000    1.00000    0.09115    0.95451    0.48403
 2480.85000    1.00000    0.09243    0.95484    0.47815
 2481.00000    1.00000    0.09945    0.95396    0.47662
 2481.15000    1.00000    0.09984    0.95333    0.47309
 2481.30000    1.00000    0.10026    0.95080    0.46828
 2481.45000    1.00000    0.09740    0.94876    0.46971
 2481.60000    2.00000    0.20712    0.95000    0.03821
 2481.75000    2.00000    0.19222    0.95000    0.03209
 2481.90000    2.00000    0.18537    0.95000    0.02907
 2482.05000    2.00000    0.18608    0.95000    0.02238
 2482.20000    2.00000    0.19522    0.95000    0.01575
 2482.35000    2.00000    0.18572    0.95000    0.01743
 2482.50000    2.00000    0.17411    0.95000    0.02109
 2482.65000    2.00000    0.18072    0.95000    0.01805
 2482.80000    2.00000    0.18016    0.95000    0.01934
 2482.95000    2.00000    0.19292    0.95000    0.02171
 2483.10000    2.00000    0.20413    0.95000    0.02451
 2483.25000    2.00000    0.20263    0.95000    0.02082
 2483.40000    2.00000    0.21697    0.95000    0.01900
 2483.55000    2.00000    0.21305    0.95000    0.01988
 2483.70000    2.00000    0.21795    0.95000    0.02456
 2483.85000    2.00000    0.21132    0.95000    0.03050
 2484.00000    2.00000    0.21378    0.95000    0.02862
 2484.15000    2.00000    0.20646    0.95000    0.03259
 2484.30000    2.00000    0.21686    0.95000    0.02988
 2484.45000    2.00000    0.21777    0.95000    0.02745
 2484.60000    2.00000    0.21266    0.95000    0.02573
 2484.75000    2.00000    0.20581    0.95000    0.03196
 2484.90000    2.00000    0.19331    0.95000    0.02929
 2485.05000    2.00000    0.19395    0.95000    0.02426
 2485.20000    2.00000    0.19182    0.95000    0.01999
 2485.35000    2.00000    0.19175    0.95000    0.01657
 2485.50000    2.00000    0.19582    0.95000    0.01887
 2485.65000    2.00000    0.20608    0.95000    0.01400
 2485.80000    1.00000    0.09331    0.93997    0.45722
 2485.95000    1.00000    0.08335    0.93857    0.45505
 2486.10000    1.00000    0.08887    0.93643    0.45847
 2486.25000    1.00000    0.08773    0.93564    0.45719
 2486.40000    1.00000    0.08591    0.93416    0.45433
 2486.55000    1.00000    0.08682    0.93783    0.45719
 2486.70000    1.00000    0.08462    0.93543    0.46222
 2486.85000    1.00000    0.08045    0.93722    0.45765
 2487.00000    1.00000    0.07863    0.94099    0.45580
 2487.15000    1.00000    0.07882    0.93913    0.45198
 2487.30000    1.00000    0.08817    0.93999    0.44290
 2487.45000    1.00000    0.09006    0.93916    0.44322
 2487.60000    1.00000    0.08967    0.93930    0.44228
 2487.75000    1.00000    0.08317    0.93912    0.44120
 2487.90000    1.00000    0.09012    0.94165    0.44108
 2488.05000    1.00000    0.09198    0.94281    0.44012
 2488.20000    1.00000    0.09395    0.94601    0.43895
 2488.35000    1.00000    0.09416    0.94463    0.43897
 2488.50000    1.00000    0.09817    0.94619    0.43563
 2488.65000    1.00000    0.09634    0.94724    0.43691
 2488.80000    1.00000    0.09882    0.94761    0.44349
 2488.95000    1.00000    0.10723    0.94796    0.44509
 2489.10000    1.00000    0.11007    0.94727    0.44518
 2489.25000    1.00000    0.10764    0.94614    0.43796
 2489.40000    1.00000    0.10452    0.94599    0.44136
 2489.55000    1.00000    0.11062    0.94627    0.43876
 2489.70000    1.00000    0.11415    0.94683    0.44303
 2489.85000    1.00000    0.11594    0.95011    0.44588
 2490.00000    1.00000    0.11116    0.95094    0.43613
 2490.15000    1.00000    0.11773    0.95034    0.44372
 2490.30000    1.00000    0.11323    0.94765    0.44594
 2490.45000    1.00000    0.12049    0.94898    0.44387
 2490.60000    1.00000    0.11848    0.95142    0.44645
 2490.75000    1.00000    0.11282    0.95291    0.45190
 2490.90000    1.00000    0.11623    0.95091    0.44953
 2491.05000    1.00000    0.10923    0.95355    0.44925
 2491.20000    1.00000    0.10923    0.95276    0.44673
 2491.35000    1.00000    0.11593    0.95290    0.45045
 2491.50000    1.00000    0.11313    0.95295    0.45251
 2491.65000    1.00000    0.10545    0.95279    0.44411
 2491.80000    1.00000    0.10409    0.95393    0.43940
 2491.95000    1.00000    0.10213    0.95306    0.43873
 2492.10000    1.00000    0.10441    0.95133    0.43365
 2492.25000    1.00000    0.10686    0.95087    0.43034
 2492.40000    1.00000    0.10685    0.95088    0.43325
 2492.55000    1.00000    0.10270    0.95175    0.43747
 2492.70000    1.00000    0.10262    0.95159    0.43737
 2492.85000    1.00000    0.10420    0.95124    0.44527
 2493.00000    1.00000    0.09801    0.95165    0.44856
