~Version ---------------------------------------------------
VERS.   2.0 : CWLS log ASCII Standard -VERSION 2.0
WRAP.    NO : One line per depth step
DLM . SPACE : Column Data Section Delimiter
~Well ------------------------------------------------------
STRT.m                  2000.0 : START DEPTH
STOP.m      3199.9500000001212 : STOP DEPTH
STEP.m     0.15000000000009095 : STEP
NULL.                 -9999.25 : NULL VALUE
COMP.                          : COMPANY
WELL. pseudowell 2856667402688 : WELL
FLD .                          : FIELD
LOC .                          : LOCATION
PROV.                          : PROVINCE
CNTY.                          : COUNTY
STAT.                          : STATE
CTRY.                          : COUNTRY
SRVC.                          : SERVICE COMPANY
DATE.      2023-05-26 16:58:03 : DATE
UWI .                          : UNIQUE WELL ID
API .                          : API NUMBER
~Curve Information -----------------------------------------
DEPTH .m              : 
FACIES.dimensionless  : 
PHI   .fraction       : 
SW    .fraction       : 
Vclay .fraction       : 
~Params ----------------------------------------------------
~Other -----------------------------------------------------
Data exported from RazorBill, (C) LTrace, 2023
Input file: None
~ASCII -----------------------------------------------------
# ...
 2321.65000    3.00000    0.20818    0.15890    0.06147
 2321.80000    3.00000    0.20717    0.15666    0.05182
 2321.95000    3.00000    0.19672    0.15307    0.05663
 2322.10000    3.00000    0.18928    0.15139    0.06369
 2322.25000    3.00000    0.19554    0.14948    0.06832
 2322.40000    3.00000    0.19833    0.14993    0.06817
 2322.55000    3.00000    0.19054    0.14824    0.07088
 2322.70000    3.00000    0.18876    0.14556    0.06916
 2322.85000    3.00000    0.17356    0.14511    0.06071
 2323.00000    3.00000    0.18382    0.14299    0.05773
 2323.15000    3.00000    0.18233    0.14582    0.05980
 2323.30000    3.00000    0.17077    0.14559    0.04532
 2323.45000    3.00000    0.18454    0.14824    0.05079
 2323.60000    3.00000    0.17809    0.14671    0.04984
 2323.75000    3.00000    0.16605    0.14780    0.04296
 2323.90000    3.00000    0.16536    0.14540    0.03916
 2324.05000    3.00000    0.16167    0.14398    0.03124
 2324.20000    3.00000    0.17199    0.14671    0.02930
 2324.35000    3.00000    0.17720    0.14676    0.02908
 2324.50000    3.00000    0.18010    0.15027    0.03800
 2324.65000    3.00000    0.18101    0.14794    0.04439
 2324.80000    3.00000    0.17571    0.14811    0.04103
 2324.95000    3.00000    0.16986    0.14753    0.04366
 2325.10000    3.00000    0.16516    0.14645    0.03712
 2325.25000    3.00000    0.16740    0.14748    0.04159
 2325.40000    3.00000    0.16724    0.14890    0.04079
 2325.55000    3.00000    0.19423    0.14997    0.03983
 2325.70000    3.00000    0.19199    0.14993    0.03486
 2325.85000    3.00000    0.18943    0.15589    0.02754
 2326.00000    3.00000    0.19788    0.15616    0.01968
 2326.15000    3.00000    0.19368    0.16155    0.01949
 2326.30000    3.00000    0.19291    0.15873    0.02070
 2326.45000    3.00000    0.20237    0.16124    0.02370
 2326.60000    3.00000    0.21542    0.15838    0.03183
 2326.75000    3.00000    0.22337    0.15991    0.03478
 2326.90000    3.00000    0.22092    0.16166    0.02810
 2327.05000    3.00000    0.21224    0.16061    0.02310
 2327.20000    3.00000    0.22161    0.16159    0.02884
 2327.35000    3.00000    0.22114    0.15914    0.03263
 2327.50000    3.00000    0.21841    0.15976    0.03822
 2327.65000    3.00000    0.21455    0.15687    0.03873
 2327.80000    3.00000    0.21215    0.15793    0.04248
 2327.95000    3.00000    0.20708    0.15850    0.04614
 2328.10000    3.00000    0.21804    0.15963    0.04993
 2328.25000    3.00000    0.20621    0.16033    0.05378
 2328.40000    3.00000    0.19717    0.15926    0.05964
 2328.55000    3.00000    0.18262    0.15967    0.06642
 2328.70000    3.00000    0.18540    0.16275    0.06513
 2328.85000    3.00000    0.18667    0.16229    0.06169
 2329.00000    3.00000    0.17413    0.16032    0.06044
 2329.15000    3.00000    0.17153    0.16080    0.06508
 2329.30000    3.00000    0.16904    0.16081    0.07236
 2329.45000    3.00000    0.16519    0.16352    0.07382
 2329.60000    3.00000    0.17948    0.16180    0.07564
 2329.75000    3.00000    0.18473    0.16297    0.07061
 2329.90000    3.00000    0.16628    0.16333    0.07286
 2330.05000    3.00000    0.17958    0.16609    0.07481
 2330.20000    3.00000    0.18755    0.16855    0.06658
 2330.35000    3.00000    0.17848    0.17265    0.07057
 2330.50000    3.00000    0.16921    0.17398    0.06294
 2330.65000    3.00000    0.17048    0.17766    0.07524
 2330.80000    3.00000    0.17335    0.17888    0.07795
 2330.95000    3.00000    0.18477    0.18076    0.07413
 2331.10000    3.00000    0.18511    0.18400    0.07675
 2331.25000    3.00000    0.17682    0.18426    0.07214
 2331.40000    3.00000    0.17827    0.18775    0.06854
 2331.55000    3.00000    0.18535    0.18661    0.06687
 2331.70000    3.00000    0.19441    0.18566    0.07397
 2331.85000    3.00000    0.19517    0.18567    0.08057
 2332.00000    3.00000    0.19372    0.18542    0.07164
 2332.15000    3.00000    0.18708    0.18747    0.07639
 2332.30000    3.00000    0.19122    0.18547    0.08820
 2332.45000    3.00000    0.20668    0.18710    0.08993
 2332.60000    3.00000    0.20469    0.18846    0.08554
 2332.75000    3.00000    0.16810    0.18593    0.08564
 2332.90000    3.00000    0.18665    0.18922    0.07857
 2333.05000    3.00000    0.19700    0.18924    0.09081
 2333.20000    1.00000    0.10067    0.94202    0.44324
 2333.35000    1.00000    0.10093    0.94136    0.44248
 2333.50000    1.00000    0.09938    0.94239    0.44602
 2333.65000    1.00000    0.10353    0.94317    0.44242
 2333.80000    1.00000    0.10371    0.94268    0.44130
 2333.95000    1.00000    0.10145    0.94231    0.43820
 2334.10000    1.00000    0.09328    0.94173    0.44590
 2334.25000    1.00000    0.09519    0.94112    0.44575
 2334.40000    1.00000    0.09310    0.94118    0.44427
 2334.55000    1.00000    0.08894    0.94475    0.43803
 2334.70000    1.00000    0.09484    0.94479    0.43307
 2334.85000    1.00000    0.09644    0.94470    0.42651
 2335.00000    1.00000    0.09094    0.94610    0.44012
 2335.15000    1.00000    0.08151    0.94585    0.44245
 2335.30000    1.00000    0.07988    0.94653    0.43968
 2335.45000    1.00000    0.08165    0.94575    0.43501
 2335.60000    1.00000    0.08537    0.94530    0.43468
 2335.75000    1.00000    0.08790    0.94499    0.43585
 2335.90000    1.00000    0.09391    0.94463    0.43377
 2336.05000    1.00000    0.09584    0.94410    0.44050
 2336.20000    1.00000    0.10001    0.94609    0.44107
 2336.35000    1.00000    0.09456    0.94750    0.43711
 2336.50000    1.00000    0.09673    0.94923    0.44611
 2336.65000    1.00000    0.09031    0.94921    0.44404
 2336.80000    1.00000    0.09056    0.95019    0.43450
 2336.95000    1.00000    0.09202    0.94932    0.43266
 2337.10000    1.00000    0.09551    0.94940    0.43093
 2337.25000    1.00000    0.09470    0.94983    0.43054
 2337.40000    1.00000    0.09361    0.95051    0.43111
 2337.55000    1.00000    0.09495    0.94970    0.42873
 2337.70000    1.00000    0.10001    0.94879    0.42394
 2337.85000    1.00000    0.09701    0.95084    0.42253
 2338.00000    1.00000    0.08831    0.95059    0.42196
 2338.15000    1.00000    0.09472    0.94828    0.42598
 2338.30000    1.00000    0.08865    0.94691    0.42521
 2338.45000    1.00000    0.08785    0.94442    0.42278
 2338.60000    1.00000    0.08693    0.94181    0.42529
 2338.75000    1.00000    0.09413    0.94336    0.43262
 2338.90000    1.00000    0.08656    0.94291    0.43528
 2339.05000    1.00000    0.08498    0.94265    0.43720
 2339.20000    1.00000    0.08534    0.94220    0.44219
 2339.35000    1.00000    0.08281    0.94323    0.43852
 2339.50000    1.00000    0.07631    0.94302    0.44377
 2339.65000    1.00000    0.07778    0.94195    0.44266
 2339.80000    1.00000    0.07821    0.94332    0.44857
 2339.95000    1.00000    0.08241    0.94629    0.45565
 2340.10000    1.00000    0.08910    0.94634    0.45617
 2340.25000    1.00000    0.08903    0.94594    0.45936
 2340.40000    1.00000    0.08899    0.94659    0.45569
 2340.55000    1.00000    0.08662    0.94859    0.45803
 2340.70000    1.00000    0.08574    0.94909    0.46661
 2340.85000    1.00000    0.08500    0.94724    0.46373
 2341.00000    1.00000    0.07991    0.94802    0.46376
 2341.15000    1.00000    0.08413    0.94949    0.46152
 2341.30000    1.00000    0.08960    0.94945    0.46055
 2341.45000    1.00000    0.08427    0.95082    0.46308
 2341.60000    1.00000    0.08608    0.95318    0.46112
 2341.75000    1.00000    0.08354    0.95111    0.45297
 2341.90000    1.00000    0.08745    0.95152    0.46010
 2342.05000    1.00000    0.09717    0.95253    0.45821
 2342.20000    1.00000    0.10013    0.95280    0.45013
 2342.35000    1.00000    0.10437    0.95056    0.44744
 2342.50000    1.00000    0.09797    0.94882    0.44610
 2342.65000    1.00000    0.09945    0.95064    0.44806
 2342.80000    1.00000    0.09253    0.95029    0.45244
 2342.95000    1.00000    0.09992    0.95125    0.44720
