~Version ---------------------------------------------------
VERS.   2.0 : CWLS log ASCII Standard -VERSION 2.0
WRAP.    NO : One line per depth step
DLM . SPACE : Column Data Section Delimiter
~Well ------------------------------------------------------
STRT.m                  2000.0 : START DEPTH
STOP.m      3199.9500000001212 : STOP DEPTH
STEP.m     0.15000000000009095 : STEP
NULL.                 -9999.25 : NULL VALUE
COMP.                          : COMPANY
WELL. pseudowell 2856667402688 : WELL
FLD .                          : FIELD
LOC .                          : LOCATION
PROV.                          : PROVINCE
CNTY.                          : COUNTY
STAT.                          : STATE
CTRY.                          : COUNTRY
SRVC.                          : SERVICE COMPANY
DATE.      2023-05-26 16:58:03 : DATE
UWI .                          : UNIQUE WELL ID
API .                          : API NUMBER
~Curve Information -----------------------------------------
DEPTH .m              : 
FACIES.dimensionless  : 
PHI   .fraction       : 
SW    .fraction       : 
Vclay .fraction       : 
~Params ----------------------------------------------------
~Other -----------------------------------------------------
Data exported from RazorBill, (C) LTrace, 2023
Input file: None
~ASCII -----------------------------------------------------
# ...
 2943.40000    3.00000    0.17915    0.16062    0.03888
 2943.55000    2.00000    0.20550    0.95000    0.05209
 2943.70000    2.00000    0.21397    0.95000    0.05640
 2943.85000    2.00000    0.20554    0.95000    0.05848
 2944.00000    2.00000    0.20801    0.95000    0.05616
 2944.15000    2.00000    0.21337    0.95000    0.04926
 2944.30000    2.00000    0.20864    0.95000    0.05369
 2944.45000    2.00000    0.19225    0.95000    0.05796
 2944.60000    2.00000    0.19016    0.95000    0.06227
 2944.75000    3.00000    0.19949    0.17408    0.04835
 2944.90000    3.00000    0.20552    0.17721    0.05185
 2945.05000    3.00000    0.19379    0.17618    0.05404
 2945.20000    3.00000    0.18734    0.18176    0.06657
 2945.35000    3.00000    0.18233    0.17696    0.06641
 2945.50000    3.00000    0.19530    0.17501    0.06574
 2945.65000    3.00000    0.18175    0.17663    0.06405
 2945.80000    3.00000    0.15091    0.16087    0.06027
 2945.95000    3.00000    0.16275    0.16004    0.06104
 2946.10000    3.00000    0.16799    0.15526    0.06976
 2946.25000    3.00000    0.17767    0.15525    0.06662
 2946.40000    3.00000    0.16264    0.14731    0.07101
 2946.55000    3.00000    0.17576    0.15410    0.06971
 2946.70000    3.00000    0.18469    0.14617    0.07784
 2946.85000    3.00000    0.18347    0.14377    0.07605
 2947.00000    2.00000    0.20756    0.95000    0.06209
 2947.15000    2.00000    0.19053    0.95000    0.06493
 2947.30000    2.00000    0.19522    0.95000    0.06703
 2947.45000    2.00000    0.18775    0.95000    0.06290
 2947.60000    2.00000    0.17354    0.95000    0.05727
 2947.75000    2.00000    0.17904    0.95000    0.05567
 2947.90000    2.00000    0.18871    0.95000    0.05991
 2948.05000    2.00000    0.18193    0.95000    0.06088
 2948.20000    2.00000    0.18052    0.95000    0.07452
 2948.35000    2.00000    0.19412    0.95000    0.07218
 2948.50000    2.00000    0.19981    0.95000    0.07699
 2948.65000    2.00000    0.18766    0.95000    0.08079
 2948.80000    2.00000    0.18635    0.95000    0.07922
 2948.95000    2.00000    0.18641    0.95000    0.07317
 2949.10000    2.00000    0.20275    0.95000    0.07166
 2949.25000    2.00000    0.20268    0.95000    0.07006
 2949.40000    2.00000    0.21456    0.95000    0.06722
 2949.55000    2.00000    0.19947    0.95000    0.06735
 2949.70000    2.00000    0.18361    0.95000    0.06397
 2949.85000    2.00000    0.20767    0.95000    0.06222
 2950.00000    2.00000    0.20696    0.95000    0.06097
 2950.15000    2.00000    0.21235    0.95000    0.05904
 2950.30000    2.00000    0.23226    0.95000    0.05891
 2950.45000    2.00000    0.23045    0.95000    0.05812
 2950.60000    2.00000    0.23155    0.95000    0.04849
 2950.75000    2.00000    0.25410    0.95000    0.05003
 2950.90000    2.00000    0.24556    0.95000    0.04869
 2951.05000    2.00000    0.25245    0.95000    0.04465
 2951.20000    2.00000    0.25792    0.95000    0.04427
 2951.35000    2.00000    0.26398    0.95000    0.04364
 2951.50000    2.00000    0.27210    0.95000    0.04740
 2951.65000    2.00000    0.25704    0.95000    0.04503
 2951.80000    2.00000    0.24713    0.95000    0.04092
 2951.95000    2.00000    0.23503    0.95000    0.04575
 2952.10000    2.00000    0.23209    0.95000    0.04827
 2952.25000    2.00000    0.22751    0.95000    0.04291
 2952.40000    2.00000    0.21658    0.95000    0.04208
 2952.55000    2.00000    0.22615    0.95000    0.03403
 2952.70000    2.00000    0.22799    0.95000    0.03389
 2952.85000    2.00000    0.24022    0.95000    0.02794
 2953.00000    2.00000    0.23651    0.95000    0.03040
 2953.15000    2.00000    0.24113    0.95000    0.02348
 2953.30000    2.00000    0.23223    0.95000    0.02662
 2953.45000    2.00000    0.23140    0.95000    0.02296
 2953.60000    2.00000    0.21845    0.95000    0.01718
 2953.75000    2.00000    0.21817    0.95000    0.01533
 2953.90000    2.00000    0.22166    0.95000    0.01297
 2954.05000    2.00000    0.19971    0.95000    0.01518
 2954.20000    2.00000    0.22343    0.95000    0.01468
 2954.35000    2.00000    0.21627    0.95000    0.00981
 2954.50000    2.00000    0.21400    0.95000    0.00335
 2954.65000    2.00000    0.20952    0.95000    0.00220
 2954.80000    2.00000    0.20107    0.95000    0.00142
 2954.95000    2.00000    0.18705    0.95000    0.00141
 2955.10000    2.00000    0.18154    0.95000   -0.00008
 2955.25000    2.00000    0.17531    0.95000    0.00413
 2955.40000    2.00000    0.17430    0.95000    0.00044
 2955.55000    2.00000    0.17262    0.95000   -0.00193
 2955.70000    2.00000    0.16960    0.95000    0.00286
 2955.85000    2.00000    0.16717    0.95000    0.00914
 2956.00000    3.00000    0.21122    0.15816    0.08247
 2956.15000    3.00000    0.18810    0.15855    0.07646
 2956.30000    3.00000    0.18142    0.15639    0.07680
 2956.45000    3.00000    0.18090    0.16074    0.08059
 2956.60000    3.00000    0.17208    0.17086    0.07739
 2956.75000    3.00000    0.17608    0.17973    0.07788
 2956.90000    3.00000    0.17590    0.17972    0.07925
 2957.05000    3.00000    0.16796    0.17643    0.07596
 2957.20000    3.00000    0.18011    0.17868    0.07482
 2957.35000    3.00000    0.16519    0.16419    0.07672
 2957.50000    3.00000    0.18575    0.16992    0.07312
 2957.65000    3.00000    0.18487    0.17250    0.07857
 2957.80000    3.00000    0.18914    0.17974    0.08660
 2957.95000    3.00000    0.18667    0.16777    0.08420
 2958.10000    3.00000    0.18398    0.16982    0.08001
 2958.25000    2.00000    0.16192    0.95000    0.03411
 2958.40000    2.00000    0.16439    0.95000    0.03655
 2958.55000    2.00000    0.16997    0.95000    0.03902
 2958.70000    2.00000    0.17939    0.95000    0.04118
 2958.85000    2.00000    0.18112    0.95000    0.03674
 2959.00000    2.00000    0.16838    0.95000    0.03261
 2959.15000    2.00000    0.17793    0.95000    0.03340
 2959.30000    2.00000    0.18081    0.95000    0.04039
 2959.45000    2.00000    0.18544    0.95000    0.04716
 2959.60000    2.00000    0.18176    0.95000    0.05027
 2959.75000    2.00000    0.18807    0.95000    0.04472
 2959.90000    2.00000    0.18466    0.95000    0.03489
 2960.05000    2.00000    0.19340    0.95000    0.03840
 2960.20000    2.00000    0.18761    0.95000    0.03581
 2960.35000    2.00000    0.18560    0.95000    0.03155
 2960.50000    2.00000    0.20420    0.95000    0.03588
 2960.65000    2.00000    0.20637    0.95000    0.03049
 2960.80000    2.00000    0.21359    0.95000    0.04186
 2960.95000    2.00000    0.23112    0.95000    0.03035
 2961.10000    2.00000    0.22893    0.95000    0.03382
 2961.25000    2.00000    0.23362    0.95000    0.03087
 2961.40000    2.00000    0.23490    0.95000    0.04533
 2961.55000    2.00000    0.23721    0.95000    0.04679
 2961.70000    2.00000    0.23018    0.95000    0.05055
 2961.85000    2.00000    0.22595    0.95000    0.04449
 2962.00000    2.00000    0.21945    0.95000    0.04653
 2962.15000    2.00000    0.22290    0.95000    0.05137
 2962.30000    2.00000    0.22146    0.95000    0.05123
 2962.45000    2.00000    0.22192    0.95000    0.05124
 2962.60000    2.00000    0.22939    0.95000    0.05522
 2962.75000    2.00000    0.25084    0.95000    0.05818
 2962.90000    2.00000    0.24259    0.95000    0.05337
 2963.05000    2.00000    0.24926    0.95000    0.05446
 2963.20000    2.00000    0.23611    0.95000    0.05932
 2963.35000    2.00000    0.23881    0.95000    0.06138
 2963.50000    2.00000    0.23702    0.95000    0.05883
 2963.65000    2.00000    0.22725    0.95000    0.05993
 2963.80000    2.00000    0.20791    0.95000    0.07105
 2963.95000    2.00000    0.21006    0.95000    0.06773
 2964.10000    2.00000    0.21009    0.95000    0.06857
 2964.25000    2.00000    0.20132    0.95000    0.06284
 2964.40000    2.00000    0.20764    0.95000    0.05664
 2964.55000    2.00000    0.22810    0.95000    0.05412
 2964.70000    2.00000    0.22613    0.95000    0.05162
