~Version ---------------------------------------------------
VERS.   2.0 : CWLS log ASCII Standard -VERSION 2.0
WRAP.    NO : One line per depth step
DLM . SPACE : Column Data Section Delimiter
~Well ------------------------------------------------------
STRT.m                  2000.0 : START DEPTH
STOP.m      3199.9500000001212 : STOP DEPTH
STEP.m     0.15000000000009095 : STEP
NULL.                 -9999.25 : NULL VALUE
COMP.                          : COMPANY
WELL. pseudowell 2856667402688 : WELL
FLD .                          : FIELD
LOC .                          : LOCATION
PROV.                          : PROVINCE
CNTY.                          : COUNTY
STAT.                          : STATE
CTRY.                          : COUNTRY
SRVC.                          : SERVICE COMPANY
DATE.      2023-05-26 16:58:03 : DATE
UWI .                          : UNIQUE WELL ID
API .                          : API NUMBER
~Curve Information -----------------------------------------
DEPTH .m              : 
FACIES.dimensionless  : 
PHI   .fraction       : 
SW    .fraction       : 
Vclay .fraction       : 
~Params ----------------------------------------------------
~Other -----------------------------------------------------
Data exported from RazorBill, (C) LTrace, 2023
Input file: None
~ASCII -----------------------------------------------------
# ...
 3093.45000    1.00000    0.08475    0.95588    0.45884
 3093.60000    1.00000    0.07268    0.96282    0.45137
 3093.75000    1.00000    0.07440    0.95160    0.45521
 3093.90000    1.00000    0.08048    0.95835    0.45162
 3094.05000    1.00000    0.08512    0.94054    0.44862
 3094.20000    1.00000    0.09060    0.95337    0.44609
 3094.35000    1.00000    0.08900    0.94738    0.45186
 3094.50000    1.00000    0.08676    0.95226    0.46191
 3094.65000    1.00000    0.09082    0.95055    0.46268
 3094.80000    1.00000    0.09358    0.94643    0.45901
 3094.95000    1.00000    0.09566    0.95472    0.45692
 3095.10000    1.00000    0.08994    0.94886    0.46331
 3095.25000    1.00000    0.08522    0.95370    0.46052
 3095.40000    1.00000    0.08852    0.94516    0.45772
 3095.55000    1.00000    0.08849    0.94198    0.46121
 3095.70000    1.00000    0.09362    0.95725    0.46487
 3095.85000    1.00000    0.10151    0.94880    0.45884
 3096.00000    1.00000    0.09667    0.94180    0.45676
 3096.15000    1.00000    0.09249    0.95809    0.45624
 3096.30000    1.00000    0.09398    0.95304    0.44872
 3096.45000    1.00000    0.08465    0.95080    0.44182
 3096.60000    1.00000    0.08400    0.94973    0.43889
 3096.75000    1.00000    0.08660    0.95542    0.43416
 3096.90000    1.00000    0.09314    0.94757    0.43250
 3097.05000    1.00000    0.09323    0.95624    0.42657
 3097.20000    1.00000    0.09628    0.95203    0.42691
 3097.35000    1.00000    0.09797    0.94910    0.42796
 3097.50000    1.00000    0.09923    0.95272    0.42849
 3097.65000    1.00000    0.09624    0.94004    0.42664
 3097.80000    1.00000    0.09649    0.95429    0.43612
 3097.95000    1.00000    0.09720    0.94849    0.43461
 3098.10000    1.00000    0.10126    0.94727    0.44485
 3098.25000    1.00000    0.10429    0.95218    0.44198
 3098.40000    1.00000    0.10755    0.94749    0.43967
 3098.55000    1.00000    0.10967    0.94880    0.44473
 3098.70000    1.00000    0.10645    0.95270    0.45072
 3098.85000    1.00000    0.10019    0.94269    0.45022
 3099.00000    1.00000    0.09164    0.94223    0.45136
 3099.15000    1.00000    0.08607    0.94257    0.46146
 3099.30000    1.00000    0.08015    0.95240    0.45572
 3099.45000    1.00000    0.08131    0.95505    0.45330
 3099.60000    1.00000    0.08744    0.95668    0.45512
 3099.75000    1.00000    0.08186    0.95025    0.46270
 3099.90000    1.00000    0.08501    0.95824    0.46312
 3100.05000    1.00000    0.08107    0.95443    0.46561
 3100.20000    1.00000    0.07858    0.95338    0.45869
 3100.35000    1.00000    0.07654    0.94816    0.46661
 3100.50000    1.00000    0.07646    0.94724    0.46939
 3100.65000    1.00000    0.07488    0.95154    0.46855
 3100.80000    1.00000    0.08133    0.95596    0.46740
 3100.95000    1.00000    0.07846    0.95098    0.46697
 3101.10000    1.00000    0.07904    0.94379    0.46830
 3101.25000    1.00000    0.08340    0.94536    0.47256
 3101.40000    1.00000    0.07925    0.94743    0.47243
 3101.55000    1.00000    0.08901    0.95209    0.46235
 3101.70000    1.00000    0.08227    0.95004    0.46705
 3101.85000    1.00000    0.08336    0.94944    0.46198
 3102.00000    1.00000    0.08380    0.95395    0.46393
 3102.15000    1.00000    0.08270    0.95102    0.47142
 3102.30000    1.00000    0.08581    0.94552    0.47424
 3102.45000    1.00000    0.09556    0.94926    0.46999
 3102.60000    1.00000    0.09996    0.93074    0.46974
 3102.75000    1.00000    0.10263    0.95396    0.46133
 3102.90000    1.00000    0.09902    0.94566    0.46455
 3103.05000    1.00000    0.10451    0.96325    0.46480
 3103.20000    1.00000    0.10384    0.94987    0.45964
 3103.35000    1.00000    0.10518    0.94649    0.45893
 3103.50000    1.00000    0.10347    0.96184    0.45501
 3103.65000    1.00000    0.10619    0.94930    0.45664
 3103.80000    1.00000    0.11104    0.95063    0.45412
 3103.95000    1.00000    0.11581    0.95183    0.45249
 3104.10000    1.00000    0.11488    0.94636    0.45735
 3104.25000    1.00000    0.11332    0.95267    0.45407
 3104.40000    1.00000    0.11465    0.95517    0.45008
 3104.55000    1.00000    0.11129    0.96267    0.45366
 3104.70000    1.00000    0.11119    0.94631    0.45098
 3104.85000    1.00000    0.10994    0.94996    0.44795
 3105.00000    1.00000    0.11548    0.95245    0.45388
 3105.15000    1.00000    0.11155    0.95702    0.46117
 3105.30000    1.00000    0.10524    0.95563    0.46618
 3105.45000    1.00000    0.10280    0.94959    0.46795
 3105.60000    1.00000    0.09967    0.95062    0.46845
 3105.75000    1.00000    0.10237    0.95002    0.47441
 3105.90000    1.00000    0.10633    0.94411    0.48081
 3106.05000    2.00000    0.23317    0.95000    0.04803
 3106.20000    2.00000    0.21898    0.95000    0.04294
 3106.35000    2.00000    0.21144    0.95000    0.04201
 3106.50000    2.00000    0.20465    0.95000    0.04228
 3106.65000    2.00000    0.20375    0.95000    0.03896
 3106.80000    2.00000    0.19574    0.95000    0.03413
 3106.95000    2.00000    0.17611    0.95000    0.02640
 3107.10000    2.00000    0.16920    0.95000    0.03199
 3107.25000    2.00000    0.18189    0.95000    0.03108
 3107.40000    2.00000    0.17716    0.95000    0.03170
 3107.55000    1.00000    0.10319    0.94863    0.46453
 3107.70000    1.00000    0.10243    0.95546    0.46145
 3107.85000    1.00000    0.10337    0.94398    0.46015
 3108.00000    1.00000    0.10409    0.95444    0.45360
 3108.15000    1.00000    0.10604    0.95032    0.46459
 3108.30000    1.00000    0.10238    0.94444    0.47035
 3108.45000    1.00000    0.09958    0.95352    0.46536
 3108.60000    1.00000    0.10407    0.96444    0.46486
 3108.75000    1.00000    0.10603    0.95316    0.46633
 3108.90000    1.00000    0.11732    0.95683    0.46826
 3109.05000    1.00000    0.11641    0.95839    0.46926
 3109.20000    1.00000    0.11337    0.94556    0.46793
 3109.35000    1.00000    0.11342    0.95598    0.46224
 3109.50000    1.00000    0.11208    0.94874    0.46406
 3109.65000    1.00000    0.11649    0.95242    0.46535
 3109.80000    1.00000    0.11041    0.96065    0.46061
 3109.95000    1.00000    0.11487    0.95434    0.46342
 3110.10000    1.00000    0.10934    0.94470    0.46725
 3110.25000    1.00000    0.10576    0.94923    0.47352
 3110.40000    1.00000    0.10737    0.95480    0.47024
 3110.55000    1.00000    0.11334    0.93996    0.46954
 3110.70000    1.00000    0.10824    0.94831    0.46231
 3110.85000    1.00000    0.11214    0.95474    0.46232
 3111.00000    1.00000    0.11522    0.95233    0.46535
 3111.15000    1.00000    0.11476    0.94312    0.46123
 3111.30000    1.00000    0.11977    0.94999    0.46936
 3111.45000    1.00000    0.11592    0.94927    0.46393
 3111.60000    1.00000    0.12029    0.94543    0.46356
 3111.75000    1.00000    0.11819    0.94706    0.46556
 3111.90000    1.00000    0.11983    0.95006    0.47037
 3112.05000    1.00000    0.11718    0.95021    0.47215
 3112.20000    1.00000    0.11563    0.95815    0.47486
 3112.35000    1.00000    0.12121    0.94970    0.47718
 3112.50000    1.00000    0.12517    0.95352    0.46940
 3112.65000    1.00000    0.12743    0.95207    0.47195
 3112.80000    1.00000    0.12478    0.94705    0.47135
 3112.95000    1.00000    0.12802    0.95193    0.47397
 3113.10000    1.00000    0.12498    0.94299    0.47611
 3113.25000    1.00000    0.12107    0.95422    0.46887
 3113.40000    1.00000    0.11927    0.95134    0.46637
 3113.55000    1.00000    0.12154    0.95186    0.46430
 3113.70000    1.00000    0.11819    0.93518    0.46618
 3113.85000    1.00000    0.11805    0.93791    0.46963
 3114.00000    1.00000    0.11475    0.95365    0.46506
 3114.15000    1.00000    0.10972    0.95163    0.46896
 3114.30000    1.00000    0.10680    0.94865    0.46749
 3114.45000    1.00000    0.10725    0.95645    0.47055
 3114.60000    1.00000    0.10829    0.95224    0.47522
 3114.75000    1.00000    0.10797    0.94784    0.46877
