~Version ---------------------------------------------------
VERS.   2.0 : CWLS log ASCII Standard -VERSION 2.0
WRAP.    NO : One line per depth step
DLM . SPACE : Column Data Section Delimiter
~Well ------------------------------------------------------
STRT.m                  2000.0 : START DEPTH
STOP.m      3199.9500000001212 : STOP DEPTH
STEP.m     0.15000000000009095 : STEP
NULL.                 -9999.25 : NULL VALUE
COMP.                          : COMPANY
WELL. pseudowell 2856667402688 : WELL
FLD .                          : FIELD
LOC .                          : LOCATION
PROV.                          : PROVINCE
CNTY.                          : COUNTY
STAT.                          : STATE
CTRY.                          : COUNTRY
SRVC.                          : SERVICE COMPANY
DATE.      2023-05-26 16:58:03 : DATE
UWI .                          : UNIQUE WELL ID
API .                          : API NUMBER
~Curve Information -----------------------------------------
DEPTH .m              : 
FACIES.dimensionless  : 
PHI   .fraction       : 
SW    .fraction       : 
Vclay .fraction       : 
~Params ----------------------------------------------------
~Other -----------------------------------------------------
Data exported from RazorBill, (C) LTrace, 2023
Input file: None
~ASCII -----------------------------------------------------
# ...
 2621.75000    3.00000    0.16460    0.14117    0.02030
 2621.90000    3.00000    0.16109    0.14159    0.02294
 2622.05000    3.00000    0.16678    0.14149    0.02090
 2622.20000    3.00000    0.16925    0.14400    0.01980
 2622.35000    3.00000    0.18244    0.14999    0.00907
 2622.50000    3.00000    0.18960    0.13821    0.00660
 2622.65000    3.00000    0.19436    0.14106    0.00175
 2622.80000    3.00000    0.19548    0.13873    0.00587
 2622.95000    3.00000    0.19371    0.13083    0.00745
 2623.10000    3.00000    0.18596    0.13134    0.01354
 2623.25000    3.00000    0.18467    0.12871    0.02115
 2623.40000    3.00000    0.17650    0.12521    0.01429
 2623.55000    3.00000    0.17769    0.12132    0.01794
 2623.70000    3.00000    0.17650    0.12948    0.01620
 2623.85000    3.00000    0.19277    0.12848    0.02180
 2624.00000    3.00000    0.19982    0.13248    0.02376
 2624.15000    3.00000    0.19594    0.13137    0.01794
 2624.30000    3.00000    0.18669    0.12682    0.02713
 2624.45000    3.00000    0.18539    0.13351    0.02804
 2624.60000    3.00000    0.17320    0.14458    0.02671
 2624.75000    3.00000    0.18455    0.14027    0.03011
 2624.90000    3.00000    0.18303    0.14020    0.03062
 2625.05000    3.00000    0.17567    0.14061    0.03489
 2625.20000    3.00000    0.17341    0.14841    0.03301
 2625.35000    3.00000    0.17815    0.15581    0.03661
 2625.50000    3.00000    0.18015    0.15577    0.03879
 2625.65000    3.00000    0.16584    0.14967    0.04008
 2625.80000    3.00000    0.15835    0.14933    0.04342
 2625.95000    3.00000    0.14500    0.15240    0.04018
 2626.10000    3.00000    0.14527    0.15276    0.03432
 2626.25000    3.00000    0.14061    0.15177    0.03817
 2626.40000    3.00000    0.15767    0.15161    0.04084
 2626.55000    3.00000    0.15558    0.15831    0.03493
 2626.70000    3.00000    0.15850    0.16241    0.03424
 2626.85000    3.00000    0.15710    0.16485    0.04272
 2627.00000    3.00000    0.16458    0.16534    0.04710
 2627.15000    3.00000    0.17273    0.15951    0.04914
 2627.30000    3.00000    0.19395    0.16225    0.05418
 2627.45000    3.00000    0.19988    0.16795    0.06043
 2627.60000    3.00000    0.17883    0.16930    0.05868
 2627.75000    3.00000    0.16862    0.16758    0.06048
 2627.90000    3.00000    0.16836    0.15993    0.06746
 2628.05000    3.00000    0.18727    0.16556    0.07047
 2628.20000    3.00000    0.19214    0.16196    0.06169
 2628.35000    3.00000    0.21717    0.15688    0.08040
 2628.50000    3.00000    0.21953    0.15404    0.07743
 2628.65000    3.00000    0.19727    0.17553    0.07945
 2628.80000    3.00000    0.21107    0.17197    0.08980
 2628.95000    3.00000    0.21347    0.17206    0.08568
 2629.10000    3.00000    0.21966    0.17254    0.07963
 2629.25000    3.00000    0.22105    0.16761    0.08453
 2629.40000    3.00000    0.22221    0.16773    0.08343
 2629.55000    3.00000    0.22479    0.16938    0.07415
 2629.70000    3.00000    0.20509    0.17170    0.06275
 2629.85000    3.00000    0.19400    0.16698    0.06380
 2630.00000    3.00000    0.19299    0.15980    0.06378
 2630.15000    3.00000    0.20103    0.16738    0.06307
 2630.30000    3.00000    0.20228    0.15685    0.06579
 2630.45000    3.00000    0.20478    0.14913    0.06039
 2630.60000    3.00000    0.21916    0.14469    0.05891
 2630.75000    3.00000    0.22831    0.14727    0.05303
 2630.90000    3.00000    0.24942    0.13937    0.05417
 2631.05000    3.00000    0.24934    0.14185    0.04694
 2631.20000    3.00000    0.25321    0.13919    0.04914
 2631.35000    3.00000    0.26875    0.14026    0.05350
 2631.50000    3.00000    0.26835    0.13530    0.06061
 2631.65000    3.00000    0.26812    0.14462    0.05221
 2631.80000    3.00000    0.26928    0.13981    0.04943
 2631.95000    3.00000    0.27180    0.15539    0.05263
 2632.10000    3.00000    0.24996    0.15760    0.05166
 2632.25000    3.00000    0.23750    0.16340    0.05168
 2632.40000    3.00000    0.23651    0.16470    0.05235
 2632.55000    3.00000    0.24066    0.15664    0.05968
 2632.70000    3.00000    0.23944    0.15069    0.05715
 2632.85000    3.00000    0.23679    0.14621    0.05855
 2633.00000    3.00000    0.24067    0.14551    0.06030
 2633.15000    3.00000    0.23286    0.14840    0.06266
 2633.30000    3.00000    0.23371    0.16563    0.06717
 2633.45000    3.00000    0.20858    0.17007    0.06846
 2633.60000    3.00000    0.21247    0.17404    0.06721
 2633.75000    3.00000    0.20742    0.16720    0.06842
 2633.90000    3.00000    0.19128    0.15438    0.06109
 2634.05000    3.00000    0.17881    0.16541    0.05786
 2634.20000    3.00000    0.20779    0.15233    0.05474
 2634.35000    3.00000    0.20453    0.13920    0.05723
 2634.50000    3.00000    0.21499    0.14556    0.06296
 2634.65000    3.00000    0.20865    0.13885    0.06524
 2634.80000    3.00000    0.20704    0.14495    0.06108
 2634.95000    3.00000    0.20616    0.14000    0.05809
 2635.10000    3.00000    0.20615    0.13657    0.05645
 2635.25000    3.00000    0.20281    0.13196    0.04650
 2635.40000    3.00000    0.19388    0.13408    0.04977
 2635.55000    3.00000    0.20594    0.14282    0.04767
 2635.70000    3.00000    0.21899    0.14230    0.05009
 2635.85000    3.00000    0.21942    0.13869    0.05066
 2636.00000    3.00000    0.19978    0.13054    0.04963
 2636.15000    3.00000    0.22329    0.12414    0.04110
 2636.30000    3.00000    0.20963    0.11703    0.03625
 2636.45000    3.00000    0.21359    0.11006    0.04088
 2636.60000    3.00000    0.21887    0.10944    0.04199
 2636.75000    3.00000    0.21748    0.10020    0.04602
 2636.90000    3.00000    0.21899    0.10968    0.04120
 2637.05000    3.00000    0.21908    0.11434    0.03216
 2637.20000    3.00000    0.21851    0.11140    0.03670
 2637.35000    3.00000    0.21501    0.12314    0.03575
 2637.50000    1.00000    0.10000    0.93970    0.44276
 2637.65000    1.00000    0.10000    0.94178    0.44124
 2637.80000    1.00000    0.10000    0.94279    0.44512
 2637.95000    1.00000    0.10000    0.94180    0.43725
 2638.10000    1.00000    0.10000    0.94310    0.43666
 2638.25000    1.00000    0.10000    0.94202    0.44129
 2638.40000    1.00000    0.10000    0.94405    0.45254
 2638.55000    1.00000    0.10000    0.94414    0.46003
 2638.70000    1.00000    0.10000    0.94552    0.46226
 2638.85000    1.00000    0.10000    0.94615    0.46062
 2639.00000    1.00000    0.10000    0.94520    0.45811
 2639.15000    1.00000    0.10000    0.94366    0.45853
 2639.30000    1.00000    0.10000    0.94128    0.45817
 2639.45000    1.00000    0.10000    0.94186    0.45992
 2639.60000    1.00000    0.10000    0.94294    0.45735
 2639.75000    1.00000    0.10000    0.94334    0.45872
 2639.90000    1.00000    0.10000    0.94591    0.45625
 2640.05000    1.00000    0.10000    0.94707    0.46274
 2640.20000    1.00000    0.10000    0.94832    0.45587
 2640.35000    1.00000    0.10000    0.94842    0.45260
 2640.50000    1.00000    0.10000    0.95271    0.44868
 2640.65000    1.00000    0.10000    0.95358    0.44343
 2640.80000    3.00000    0.20131    0.13807    0.01856
 2640.95000    3.00000    0.18568    0.12626    0.02196
 2641.10000    3.00000    0.18742    0.12638    0.02307
 2641.25000    1.00000    0.10000    0.94301    0.44962
 2641.40000    1.00000    0.10000    0.94322    0.45940
 2641.55000    1.00000    0.10000    0.94650    0.45644
 2641.70000    3.00000    0.21664    0.11682    0.02917
 2641.85000    3.00000    0.22635    0.11858    0.03302
 2642.00000    3.00000    0.21683    0.11726    0.04135
 2642.15000    3.00000    0.19826    0.11921    0.03589
 2642.30000    3.00000    0.19084    0.12224    0.04194
 2642.45000    3.00000    0.19254    0.13314    0.03939
 2642.60000    3.00000    0.18072    0.12198    0.04319
 2642.75000    3.00000    0.17229    0.12892    0.04104
 2642.90000    3.00000    0.18341    0.13096    0.04089
 2643.05000    3.00000    0.18129    0.14742    0.04034
