~Version ---------------------------------------------------
VERS.   2.0 : CWLS log ASCII Standard -VERSION 2.0
WRAP.    NO : One line per depth step
DLM . SPACE : Column Data Section Delimiter
~Well ------------------------------------------------------
STRT.m                  2000.0 : START DEPTH
STOP.m      3199.9500000001212 : STOP DEPTH
STEP.m     0.15000000000009095 : STEP
NULL.                 -9999.25 : NULL VALUE
COMP.                          : COMPANY
WELL. pseudowell 2856667402688 : WELL
FLD .                          : FIELD
LOC .                          : LOCATION
PROV.                          : PROVINCE
CNTY.                          : COUNTY
STAT.                          : STATE
CTRY.                          : COUNTRY
SRVC.                          : SERVICE COMPANY
DATE.      2023-05-26 16:58:03 : DATE
UWI .                          : UNIQUE WELL ID
API .                          : API NUMBER
~Curve Information -----------------------------------------
DEPTH .m              : 
FACIES.dimensionless  : 
PHI   .fraction       : 
SW    .fraction       : 
Vclay .fraction       : 
~Params ----------------------------------------------------
~Other -----------------------------------------------------
Data exported from RazorBill, (C) LTrace, 2023
Input file: None
~ASCII -----------------------------------------------------
# ...
 3179.25000    1.00000    0.10056    0.95734    0.45801
 3179.40000    1.00000    0.10083    0.94387    0.45660
 3179.55000    1.00000    0.09409    0.94922    0.44801
 3179.70000    1.00000    0.08969    0.94875    0.44679
 3179.85000    1.00000    0.08712    0.95301    0.43831
 3180.00000    1.00000    0.08843    0.94571    0.43955
 3180.15000    1.00000    0.09121    0.94986    0.44010
 3180.30000    1.00000    0.09276    0.95738    0.44609
 3180.45000    1.00000    0.09208    0.95298    0.44860
 3180.60000    1.00000    0.09180    0.94527    0.44833
 3180.75000    1.00000    0.09185    0.94811    0.45011
 3180.90000    1.00000    0.08965    0.94662    0.44277
 3181.05000    1.00000    0.09060    0.95192    0.43670
 3181.20000    1.00000    0.09551    0.95105    0.43351
 3181.35000    1.00000    0.09250    0.95643    0.44113
 3181.50000    1.00000    0.09219    0.95132    0.44061
 3181.65000    1.00000    0.09192    0.95323    0.44281
 3181.80000    1.00000    0.09702    0.94337    0.44456
 3181.95000    1.00000    0.09377    0.94574    0.44634
 3182.10000    1.00000    0.09307    0.95298    0.44964
 3182.25000    1.00000    0.09905    0.95138    0.44650
 3182.40000    1.00000    0.08946    0.94632    0.44987
 3182.55000    1.00000    0.10092    0.95379    0.45543
 3182.70000    1.00000    0.10089    0.95603    0.45109
 3182.85000    1.00000    0.09934    0.94680    0.45501
 3183.00000    1.00000    0.09412    0.95595    0.46063
 3183.15000    1.00000    0.09637    0.94758    0.46191
 3183.30000    1.00000    0.09804    0.95465    0.46751
 3183.45000    1.00000    0.10238    0.95446    0.46821
 3183.60000    1.00000    0.09997    0.95252    0.46562
 3183.75000    1.00000    0.09659    0.94917    0.46336
 3183.90000    1.00000    0.09755    0.93680    0.46648
 3184.05000    1.00000    0.09572    0.95665    0.46855
 3184.20000    1.00000    0.09805    0.95270    0.46536
 3184.35000    1.00000    0.08867    0.95277    0.46860
 3184.50000    1.00000    0.09125    0.94625    0.46338
 3184.65000    1.00000    0.09303    0.95345    0.46443
 3184.80000    1.00000    0.09279    0.95540    0.46946
 3184.95000    1.00000    0.08943    0.94082    0.47138
 3185.10000    1.00000    0.08672    0.94794    0.47347
 3185.25000    1.00000    0.08393    0.95265    0.48671
 3185.40000    1.00000    0.09060    0.94868    0.49693
 3185.55000    1.00000    0.09245    0.95389    0.48990
 3185.70000    1.00000    0.09339    0.95794    0.48463
 3185.85000    1.00000    0.09925    0.95834    0.48875
 3186.00000    1.00000    0.09428    0.95356    0.49183
 3186.15000    1.00000    0.09654    0.95350    0.49226
 3186.30000    1.00000    0.09714    0.95541    0.48430
 3186.45000    1.00000    0.09179    0.95522    0.47767
 3186.60000    1.00000    0.09050    0.94761    0.47809
 3186.75000    1.00000    0.09236    0.94687    0.47666
 3186.90000    1.00000    0.09551    0.95017    0.47716
 3187.05000    1.00000    0.09531    0.95572    0.48112
 3187.20000    1.00000    0.10059    0.95191    0.48194
 3187.35000    1.00000    0.08986    0.94211    0.48074
 3187.50000    1.00000    0.09072    0.94630    0.47345
 3187.65000    1.00000    0.09036    0.95198    0.46341
 3187.80000    1.00000    0.09295    0.94764    0.47116
 3187.95000    1.00000    0.09819    0.95348    0.46865
 3188.10000    1.00000    0.09369    0.94631    0.47282
 3188.25000    1.00000    0.09590    0.94914    0.47435
 3188.40000    1.00000    0.09094    0.95192    0.47414
 3188.55000    1.00000    0.09562    0.95325    0.47394
 3188.70000    1.00000    0.09444    0.95692    0.47468
 3188.85000    1.00000    0.10086    0.94834    0.47380
 3189.00000    1.00000    0.10378    0.95230    0.47921
 3189.15000    1.00000    0.10398    0.94983    0.47818
 3189.30000    1.00000    0.11207    0.94284    0.47562
 3189.45000    1.00000    0.11707    0.95102    0.46803
 3189.60000    1.00000    0.11128    0.94309    0.46872
 3189.75000    1.00000    0.10574    0.95374    0.46581
 3189.90000    1.00000    0.10142    0.94772    0.46771
 3190.05000    1.00000    0.09737    0.94619    0.46326
 3190.20000    1.00000    0.10857    0.95211    0.46150
 3190.35000    1.00000    0.11071    0.95043    0.47089
 3190.50000    1.00000    0.11119    0.95208    0.46820
 3190.65000    1.00000    0.11724    0.94065    0.46573
 3190.80000    1.00000    0.12158    0.95390    0.46289
 3190.95000    1.00000    0.12219    0.95770    0.46628
 3191.10000    1.00000    0.12277    0.96208    0.46431
 3191.25000    1.00000    0.11776    0.96001    0.45175
 3191.40000    1.00000    0.11889    0.94694    0.45567
 3191.55000    1.00000    0.11303    0.96203    0.46239
 3191.70000    1.00000    0.10641    0.95319    0.45183
 3191.85000    1.00000    0.11539    0.94941    0.45494
 3192.00000    1.00000    0.11020    0.94604    0.45571
 3192.15000    1.00000    0.11138    0.94449    0.44956
 3192.30000    1.00000    0.11742    0.95033    0.45418
 3192.45000    1.00000    0.11501    0.94939    0.45493
 3192.60000    1.00000    0.11390    0.95266    0.45315
 3192.75000    1.00000    0.11427    0.95408    0.45500
 3192.90000    1.00000    0.11567    0.94852    0.46543
 3193.05000    1.00000    0.11701    0.95372    0.46456
 3193.20000    1.00000    0.11385    0.94320    0.46103
 3193.35000    1.00000    0.10614    0.94635    0.45334
 3193.50000    1.00000    0.11263    0.94978    0.45316
 3193.65000    1.00000    0.11267    0.95369    0.44416
 3193.80000    1.00000    0.11316    0.95228    0.44032
 3193.95000    1.00000    0.11384    0.95837    0.44205
 3194.10000    1.00000    0.11171    0.95148    0.44889
 3194.25000    1.00000    0.10740    0.95308    0.44969
 3194.40000    1.00000    0.10830    0.95593    0.45067
 3194.55000    1.00000    0.11218    0.94424    0.45178
 3194.70000    1.00000    0.10931    0.95170    0.45996
 3194.85000    1.00000    0.10522    0.95521    0.45979
 3195.00000    1.00000    0.10693    0.94793    0.45604
 3195.15000    1.00000    0.10921    0.94963    0.45687
 3195.30000    1.00000    0.09853    0.94534    0.46712
 3195.45000    1.00000    0.10042    0.96204    0.46644
 3195.60000    1.00000    0.09005    0.95234    0.46529
 3195.75000    1.00000    0.08364    0.95716    0.46913
 3195.90000    1.00000    0.08256    0.94939    0.47068
 3196.05000    1.00000    0.08150    0.95251    0.47726
 3196.20000    1.00000    0.08373    0.95580    0.48302
 3196.35000    1.00000    0.08641    0.95297    0.48338
 3196.50000    1.00000    0.08520    0.94704    0.49239
 3196.65000    1.00000    0.08437    0.94632    0.49369
 3196.80000    1.00000    0.08328    0.95315    0.49194
 3196.95000    1.00000    0.08365    0.94404    0.49544
 3197.10000    1.00000    0.08014    0.94841    0.49543
 3197.25000    1.00000    0.07272    0.94284    0.49327
 3197.40000    1.00000    0.07016    0.94474    0.48837
 3197.55000    1.00000    0.06889    0.95098    0.48957
 3197.70000    1.00000    0.07302    0.95696    0.48326
 3197.85000    1.00000    0.07092    0.94564    0.47533
 3198.00000    1.00000    0.06947    0.94840    0.47335
 3198.15000    1.00000    0.06937    0.94483    0.47111
 3198.30000    1.00000    0.07052    0.95248    0.46602
 3198.45000    1.00000    0.06399    0.94726    0.46506
 3198.60000    1.00000    0.06825    0.95902    0.46271
 3198.75000    1.00000    0.06845    0.96436    0.45944
 3198.90000    1.00000    0.06984    0.94852    0.45888
 3199.05000    1.00000    0.07574    0.94887    0.45931
 3199.20000    1.00000    0.07617    0.94097    0.45381
 3199.35000    1.00000    0.07701    0.94988    0.45278
 3199.50000    1.00000    0.08009    0.95634    0.45281
 3199.65000    1.00000    0.07626    0.95643    0.45065
 3199.80000    1.00000    0.06916    0.94089    0.44788
 3199.95000    1.00000    0.07251    0.94549    0.45911
