~Version ---------------------------------------------------
VERS.   2.0 : CWLS log ASCII Standard -VERSION 2.0
WRAP.    NO : One line per depth step
DLM . SPACE : Column Data Section Delimiter
~Well ------------------------------------------------------
STRT.m                  2000.0 : START DEPTH
STOP.m      3199.9500000001212 : STOP DEPTH
STEP.m     0.15000000000009095 : STEP
NULL.                 -9999.25 : NULL VALUE
COMP.                          : COMPANY
WELL. pseudowell 2856667402688 : WELL
FLD .                          : FIELD
LOC .                          : LOCATION
PROV.                          : PROVINCE
CNTY.                          : COUNTY
STAT.                          : STATE
CTRY.                          : COUNTRY
SRVC.                          : SERVICE COMPANY
DATE.      2023-05-26 16:58:03 : DATE
UWI .                          : UNIQUE WELL ID
API .                          : API NUMBER
~Curve Information -----------------------------------------
DEPTH .m              : 
FACIES.dimensionless  : 
PHI   .fraction       : 
SW    .fraction       : 
Vclay .fraction       : 
~Params ----------------------------------------------------
~Other -----------------------------------------------------
Data exported from RazorBill, (C) LTrace, 2023
Input file: None
~ASCII -----------------------------------------------------
# ...
 2857.60000    2.00000    0.20843    0.95000    0.03273
 2857.75000    2.00000    0.21910    0.95000    0.03357
 2857.90000    2.00000    0.21879    0.95000    0.04040
 2858.05000    2.00000    0.20533    0.95000    0.04006
 2858.20000    2.00000    0.19545    0.95000    0.03944
 2858.35000    2.00000    0.17986    0.95000    0.04626
 2858.50000    2.00000    0.18623    0.95000    0.04634
 2858.65000    2.00000    0.18649    0.95000    0.04027
 2858.80000    2.00000    0.19010    0.95000    0.04029
 2858.95000    2.00000    0.18881    0.95000    0.03974
 2859.10000    2.00000    0.19524    0.95000    0.03401
 2859.25000    2.00000    0.18591    0.95000    0.03618
 2859.40000    2.00000    0.19988    0.95000    0.03626
 2859.55000    2.00000    0.18473    0.95000    0.03863
 2859.70000    2.00000    0.19049    0.95000    0.03576
 2859.85000    2.00000    0.17983    0.95000    0.03281
 2860.00000    2.00000    0.19798    0.95000    0.03937
 2860.15000    2.00000    0.20924    0.95000    0.04311
 2860.30000    2.00000    0.21033    0.95000    0.04260
 2860.45000    2.00000    0.22884    0.95000    0.04547
 2860.60000    2.00000    0.22569    0.95000    0.04634
 2860.75000    2.00000    0.21953    0.95000    0.04289
 2860.90000    2.00000    0.19461    0.95000    0.04200
 2861.05000    2.00000    0.18639    0.95000    0.04518
 2861.20000    2.00000    0.17884    0.95000    0.05024
 2861.35000    2.00000    0.18349    0.95000    0.04757
 2861.50000    2.00000    0.18112    0.95000    0.04747
 2861.65000    2.00000    0.17434    0.95000    0.04923
 2861.80000    2.00000    0.15913    0.95000    0.04505
 2861.95000    2.00000    0.15282    0.95000    0.04620
 2862.10000    2.00000    0.16228    0.95000    0.04993
 2862.25000    2.00000    0.16022    0.95000    0.05496
 2862.40000    2.00000    0.15063    0.95000    0.05950
 2862.55000    2.00000    0.13307    0.95000    0.05208
 2862.70000    2.00000    0.14012    0.95000    0.05319
 2862.85000    2.00000    0.15268    0.95000    0.05124
 2863.00000    2.00000    0.16922    0.95000    0.05286
 2863.15000    2.00000    0.17837    0.95000    0.04600
 2863.30000    2.00000    0.18733    0.95000    0.04303
 2863.45000    2.00000    0.18055    0.95000    0.04633
 2863.60000    2.00000    0.19398    0.95000    0.04447
 2863.75000    2.00000    0.19157    0.95000    0.04832
 2863.90000    2.00000    0.19590    0.95000    0.04662
 2864.05000    2.00000    0.20159    0.95000    0.04328
 2864.20000    2.00000    0.21581    0.95000    0.04001
 2864.35000    3.00000    0.17923    0.13959    0.03358
 2864.50000    3.00000    0.17997    0.13274    0.02888
 2864.65000    3.00000    0.18765    0.12451    0.03393
 2864.80000    3.00000    0.17388    0.13290    0.02716
 2864.95000    3.00000    0.18267    0.13377    0.02440
 2865.10000    2.00000    0.18996    0.95000    0.04052
 2865.25000    2.00000    0.17584    0.95000    0.03672
 2865.40000    2.00000    0.18859    0.95000    0.03743
 2865.55000    2.00000    0.18956    0.95000    0.03994
 2865.70000    2.00000    0.17510    0.95000    0.03887
 2865.85000    2.00000    0.17584    0.95000    0.03278
 2866.00000    2.00000    0.16545    0.95000    0.03276
 2866.15000    2.00000    0.16325    0.95000    0.03148
 2866.30000    2.00000    0.16659    0.95000    0.03123
 2866.45000    2.00000    0.17098    0.95000    0.02533
 2866.60000    2.00000    0.15914    0.95000    0.02212
 2866.75000    2.00000    0.15050    0.95000    0.02358
 2866.90000    2.00000    0.14925    0.95000    0.02721
 2867.05000    2.00000    0.14704    0.95000    0.03328
 2867.20000    2.00000    0.14413    0.95000    0.02964
 2867.35000    2.00000    0.13146    0.95000    0.02535
 2867.50000    2.00000    0.14918    0.95000    0.02347
 2867.65000    2.00000    0.14854    0.95000    0.01519
 2867.80000    2.00000    0.14057    0.95000    0.01428
 2867.95000    2.00000    0.14742    0.95000    0.01148
 2868.10000    2.00000    0.16114    0.95000    0.01447
 2868.25000    2.00000    0.15457    0.95000    0.00965
 2868.40000    3.00000    0.19458    0.14778    0.04382
 2868.55000    3.00000    0.19408    0.14644    0.05197
 2868.70000    3.00000    0.20816    0.14936    0.05759
 2868.85000    3.00000    0.19832    0.14277    0.05547
 2869.00000    3.00000    0.21935    0.14929    0.05652
 2869.15000    3.00000    0.23719    0.15761    0.05556
 2869.30000    3.00000    0.22799    0.16327    0.06062
 2869.45000    3.00000    0.22156    0.16558    0.05881
 2869.60000    3.00000    0.19985    0.16610    0.05758
 2869.75000    3.00000    0.19692    0.15614    0.05506
 2869.90000    3.00000    0.21092    0.15769    0.05016
 2870.05000    3.00000    0.21364    0.15704    0.04479
 2870.20000    3.00000    0.20863    0.15776    0.04030
 2870.35000    3.00000    0.21027    0.16751    0.04772
 2870.50000    3.00000    0.20810    0.17561    0.04537
 2870.65000    3.00000    0.20790    0.17707    0.04203
 2870.80000    3.00000    0.19204    0.17479    0.04752
 2870.95000    3.00000    0.18882    0.16985    0.04531
 2871.10000    3.00000    0.20168    0.16067    0.03759
 2871.25000    3.00000    0.22418    0.16932    0.03749
 2871.40000    2.00000    0.19686    0.95000    0.03168
 2871.55000    2.00000    0.19563    0.95000    0.04150
 2871.70000    2.00000    0.18765    0.95000    0.03588
 2871.85000    2.00000    0.19981    0.95000    0.03625
 2872.00000    2.00000    0.20471    0.95000    0.03364
 2872.15000    2.00000    0.20081    0.95000    0.03705
 2872.30000    2.00000    0.20165    0.95000    0.03506
 2872.45000    2.00000    0.20119    0.95000    0.03857
 2872.60000    2.00000    0.19296    0.95000    0.03924
 2872.75000    2.00000    0.17810    0.95000    0.04000
 2872.90000    2.00000    0.19285    0.95000    0.04017
 2873.05000    2.00000    0.20391    0.95000    0.04809
 2873.20000    3.00000    0.16178    0.15832    0.04760
 2873.35000    2.00000    0.17292    0.95000    0.04674
 2873.50000    2.00000    0.17739    0.95000    0.04780
 2873.65000    2.00000    0.19111    0.95000    0.04650
 2873.80000    2.00000    0.19821    0.95000    0.04408
 2873.95000    2.00000    0.20479    0.95000    0.04502
 2874.10000    2.00000    0.21656    0.95000    0.04857
 2874.25000    2.00000    0.20824    0.95000    0.05183
 2874.40000    2.00000    0.22170    0.95000    0.05521
 2874.55000    2.00000    0.22428    0.95000    0.05647
 2874.70000    2.00000    0.21257    0.95000    0.05841
 2874.85000    2.00000    0.20934    0.95000    0.05721
 2875.00000    2.00000    0.19218    0.95000    0.06394
 2875.15000    2.00000    0.20387    0.95000    0.06951
 2875.30000    2.00000    0.19853    0.95000    0.06747
 2875.45000    2.00000    0.20358    0.95000    0.07842
 2875.60000    2.00000    0.20667    0.95000    0.08493
 2875.75000    2.00000    0.21152    0.95000    0.08903
 2875.90000    2.00000    0.21828    0.95000    0.09113
 2876.05000    2.00000    0.21213    0.95000    0.08608
 2876.20000    2.00000    0.20816    0.95000    0.08500
 2876.35000    2.00000    0.20383    0.95000    0.08202
 2876.50000    2.00000    0.19750    0.95000    0.08336
 2876.65000    2.00000    0.19269    0.95000    0.08032
 2876.80000    2.00000    0.18544    0.95000    0.08226
 2876.95000    2.00000    0.19873    0.95000    0.07840
 2877.10000    2.00000    0.21597    0.95000    0.08580
 2877.25000    2.00000    0.20922    0.95000    0.07816
 2877.40000    2.00000    0.20757    0.95000    0.06884
 2877.55000    2.00000    0.18600    0.95000    0.07037
 2877.70000    2.00000    0.19361    0.95000    0.07250
 2877.85000    2.00000    0.18635    0.95000    0.07924
 2878.00000    2.00000    0.18353    0.95000    0.07422
 2878.15000    2.00000    0.17858    0.95000    0.07719
 2878.30000    2.00000    0.15419    0.95000    0.07698
 2878.45000    2.00000    0.15307    0.95000    0.07819
 2878.60000    2.00000    0.16585    0.95000    0.08371
 2878.75000    2.00000    0.18090    0.95000    0.08075
 2878.90000    2.00000    0.16422    0.95000    0.07991
