~Version ---------------------------------------------------
VERS.   2.0 : CWLS log ASCII Standard -VERSION 2.0
WRAP.    NO : One line per depth step
DLM . SPACE : Column Data Section Delimiter
~Well ------------------------------------------------------
STRT.m                  2000.0 : START DEPTH
STOP.m      3199.9500000001212 : STOP DEPTH
STEP.m     0.15000000000009095 : STEP
NULL.                 -9999.25 : NULL VALUE
COMP.                          : COMPANY
WELL. pseudowell 2856667402688 : WELL
FLD .                          : FIELD
LOC .                          : LOCATION
PROV.                          : PROVINCE
CNTY.                          : COUNTY
STAT.                          : STATE
CTRY.                          : COUNTRY
SRVC.                          : SERVICE COMPANY
DATE.      2023-05-26 16:58:03 : DATE
UWI .                          : UNIQUE WELL ID
API .                          : API NUMBER
~Curve Information -----------------------------------------
DEPTH .m              : 
FACIES.dimensionless  : 
PHI   .fraction       : 
SW    .fraction       : 
Vclay .fraction       : 
~Params ----------------------------------------------------
~Other -----------------------------------------------------
Data exported from RazorBill, (C) LTrace, 2023
Input file: None
~ASCII -----------------------------------------------------
# ...
 2235.85000    3.00000    0.21466    0.15386    0.06475
 2236.00000    3.00000    0.22925    0.15459    0.07111
 2236.15000    3.00000    0.22154    0.15482    0.06930
 2236.30000    3.00000    0.22672    0.15833    0.06767
 2236.45000    3.00000    0.22221    0.15773    0.06732
 2236.60000    3.00000    0.22431    0.16118    0.06205
 2236.75000    3.00000    0.21312    0.15950    0.06052
 2236.90000    3.00000    0.22491    0.16137    0.05870
 2237.05000    3.00000    0.22623    0.15957    0.05588
 2237.20000    3.00000    0.21965    0.16250    0.05988
 2237.35000    3.00000    0.21912    0.16383    0.06095
 2237.50000    3.00000    0.21603    0.16137    0.05782
 2237.65000    3.00000    0.22725    0.16221    0.05812
 2237.80000    3.00000    0.20992    0.16173    0.05590
 2237.95000    3.00000    0.20547    0.16181    0.05809
 2238.10000    3.00000    0.21386    0.16483    0.05069
 2238.25000    3.00000    0.21164    0.16184    0.04678
 2238.40000    3.00000    0.21024    0.16004    0.04221
 2238.55000    3.00000    0.20037    0.16070    0.04044
 2238.70000    3.00000    0.17636    0.16175    0.04115
 2238.85000    3.00000    0.17992    0.16313    0.04188
 2239.00000    3.00000    0.19335    0.16205    0.03878
 2239.15000    3.00000    0.19247    0.16294    0.03621
 2239.30000    3.00000    0.19286    0.16053    0.02972
 2239.45000    3.00000    0.19730    0.16392    0.02960
 2239.60000    3.00000    0.20929    0.16392    0.03458
 2239.75000    3.00000    0.20903    0.16287    0.03840
 2239.90000    3.00000    0.19692    0.16406    0.03641
 2240.05000    3.00000    0.20722    0.16362    0.04352
 2240.20000    3.00000    0.21748    0.16050    0.03830
 2240.35000    3.00000    0.22312    0.15926    0.03802
 2240.50000    3.00000    0.24730    0.16051    0.03732
 2240.65000    3.00000    0.25569    0.16049    0.04984
 2240.80000    3.00000    0.26010    0.16207    0.05112
 2240.95000    3.00000    0.27417    0.16569    0.05322
 2241.10000    3.00000    0.27597    0.16668    0.05119
 2241.25000    3.00000    0.26336    0.16744    0.04837
 2241.40000    3.00000    0.28418    0.16771    0.04302
 2241.55000    3.00000    0.27288    0.16675    0.03628
 2241.70000    3.00000    0.26225    0.17048    0.04576
 2241.85000    3.00000    0.26254    0.16597    0.04343
 2242.00000    3.00000    0.24066    0.16931    0.04039
 2242.15000    3.00000    0.24268    0.17304    0.03731
 2242.30000    3.00000    0.23550    0.17034    0.03487
 2242.45000    3.00000    0.22964    0.16690    0.03018
 2242.60000    3.00000    0.21275    0.16546    0.02100
 2242.75000    3.00000    0.19054    0.16234    0.02841
 2242.90000    3.00000    0.20484    0.16148    0.02603
 2243.05000    3.00000    0.19221    0.15732    0.02789
 2243.20000    3.00000    0.20674    0.15923    0.02775
 2243.35000    3.00000    0.21636    0.16339    0.02955
 2243.50000    3.00000    0.21710    0.16140    0.03585
 2243.65000    3.00000    0.20508    0.16330    0.04324
 2243.80000    3.00000    0.21092    0.16409    0.04865
 2243.95000    3.00000    0.22118    0.16598    0.05066
 2244.10000    3.00000    0.21469    0.16456    0.04913
 2244.25000    3.00000    0.21665    0.15778    0.04580
 2244.40000    3.00000    0.21131    0.15855    0.04559
 2244.55000    3.00000    0.22069    0.15767    0.05237
 2244.70000    3.00000    0.19281    0.15389    0.05261
 2244.85000    3.00000    0.19154    0.15101    0.05004
 2245.00000    3.00000    0.19052    0.15379    0.05379
 2245.15000    3.00000    0.19015    0.15423    0.05236
 2245.30000    3.00000    0.19968    0.15573    0.05825
 2245.45000    3.00000    0.20718    0.15420    0.05609
 2245.60000    3.00000    0.18311    0.15384    0.05968
 2245.75000    3.00000    0.18440    0.15544    0.06428
 2245.90000    3.00000    0.18540    0.15573    0.05918
 2246.05000    3.00000    0.18014    0.15884    0.05711
 2246.20000    3.00000    0.19704    0.15719    0.05454
 2246.35000    3.00000    0.20517    0.15261    0.05887
 2246.50000    3.00000    0.20243    0.14793    0.05768
 2246.65000    3.00000    0.19593    0.15099    0.05710
 2246.80000    3.00000    0.18574    0.14750    0.05953
 2246.95000    3.00000    0.19330    0.14787    0.06252
 2247.10000    3.00000    0.19125    0.14526    0.07214
 2247.25000    3.00000    0.17327    0.14408    0.06783
 2247.40000    3.00000    0.17476    0.14570    0.07538
 2247.55000    3.00000    0.17818    0.14545    0.06534
 2247.70000    3.00000    0.20519    0.14710    0.06145
 2247.85000    3.00000    0.21714    0.14546    0.05978
 2248.00000    3.00000    0.23095    0.14383    0.06166
 2248.15000    3.00000    0.23296    0.14293    0.05916
 2248.30000    3.00000    0.23402    0.14481    0.05642
 2248.45000    3.00000    0.22901    0.14668    0.04623
 2248.60000    3.00000    0.21687    0.14680    0.04620
 2248.75000    3.00000    0.22517    0.14754    0.05083
 2248.90000    3.00000    0.21020    0.14833    0.04972
 2249.05000    3.00000    0.20286    0.14938    0.04514
 2249.20000    3.00000    0.20226    0.15002    0.04290
 2249.35000    3.00000    0.19696    0.14754    0.04654
 2249.50000    3.00000    0.18838    0.14978    0.04757
 2249.65000    3.00000    0.18924    0.15196    0.05477
 2249.80000    3.00000    0.20911    0.15239    0.05206
 2249.95000    3.00000    0.21473    0.14825    0.04402
 2250.10000    3.00000    0.21403    0.15151    0.04062
 2250.25000    3.00000    0.20571    0.15177    0.03855
 2250.40000    3.00000    0.19591    0.14655    0.03551
 2250.55000    3.00000    0.18680    0.14639    0.02983
 2250.70000    3.00000    0.19979    0.14784    0.03467
 2250.85000    3.00000    0.19833    0.15152    0.03283
 2251.00000    3.00000    0.19387    0.15466    0.03299
 2251.15000    3.00000    0.20612    0.15411    0.03707
 2251.30000    3.00000    0.19579    0.15231    0.03142
 2251.45000    3.00000    0.19542    0.15159    0.03358
 2251.60000    3.00000    0.20826    0.15042    0.03676
 2251.75000    3.00000    0.20845    0.15058    0.03490
 2251.90000    3.00000    0.21692    0.15000    0.03232
 2252.05000    3.00000    0.21511    0.14927    0.02744
 2252.20000    3.00000    0.21618    0.14806    0.02409
 2252.35000    3.00000    0.20698    0.14529    0.01939
 2252.50000    3.00000    0.20410    0.14211    0.02150
 2252.65000    3.00000    0.19913    0.14048    0.02391
 2252.80000    3.00000    0.19280    0.13972    0.02037
 2252.95000    3.00000    0.19501    0.14143    0.02136
 2253.10000    3.00000    0.18785    0.13970    0.02457
 2253.25000    3.00000    0.18144    0.14084    0.03092
 2253.40000    3.00000    0.17198    0.14020    0.02668
 2253.55000    3.00000    0.16438    0.14102    0.02431
 2253.70000    3.00000    0.15588    0.14084    0.02858
 2253.85000    3.00000    0.16112    0.14015    0.03451
 2254.00000    3.00000    0.16340    0.13855    0.02275
 2254.15000    3.00000    0.17517    0.13771    0.02218
 2254.30000    3.00000    0.19256    0.13583    0.02550
 2254.45000    3.00000    0.19004    0.13205    0.01672
 2254.60000    3.00000    0.20985    0.12983    0.01603
 2254.75000    3.00000    0.21110    0.12904    0.01581
 2254.90000    3.00000    0.21293    0.12619    0.01343
 2255.05000    3.00000    0.21171    0.13071    0.01267
 2255.20000    3.00000    0.21911    0.13091    0.01041
 2255.35000    3.00000    0.20909    0.12701    0.01425
 2255.50000    3.00000    0.21938    0.13080    0.01816
 2255.65000    3.00000    0.21138    0.13223    0.01146
 2255.80000    3.00000    0.22167    0.13577    0.00708
 2255.95000    3.00000    0.20695    0.13703    0.01157
 2256.10000    3.00000    0.18740    0.13545    0.01816
 2256.25000    3.00000    0.18523    0.13405    0.02322
 2256.40000    3.00000    0.18354    0.13507    0.01120
 2256.55000    3.00000    0.18579    0.13335    0.01576
 2256.70000    3.00000    0.19411    0.13350    0.00812
 2256.85000    3.00000    0.18964    0.13096    0.01079
 2257.00000    3.00000    0.19021    0.13106    0.01125
 2257.15000    3.00000    0.19231    0.13579    0.01740
