~Version ---------------------------------------------------
VERS.   2.0 : CWLS log ASCII Standard -VERSION 2.0
WRAP.    NO : One line per depth step
DLM . SPACE : Column Data Section Delimiter
~Well ------------------------------------------------------
STRT.m                  2000.0 : START DEPTH
STOP.m      3199.9500000001212 : STOP DEPTH
STEP.m     0.15000000000009095 : STEP
NULL.                 -9999.25 : NULL VALUE
COMP.                          : COMPANY
WELL. pseudowell 2856667402688 : WELL
FLD .                          : FIELD
LOC .                          : LOCATION
PROV.                          : PROVINCE
CNTY.                          : COUNTY
STAT.                          : STATE
CTRY.                          : COUNTRY
SRVC.                          : SERVICE COMPANY
DATE.      2023-05-26 16:58:03 : DATE
UWI .                          : UNIQUE WELL ID
API .                          : API NUMBER
~Curve Information -----------------------------------------
DEPTH .m              : 
FACIES.dimensionless  : 
PHI   .fraction       : 
SW    .fraction       : 
Vclay .fraction       : 
~Params ----------------------------------------------------
~Other -----------------------------------------------------
Data exported from RazorBill, (C) LTrace, 2023
Input file: None
~ASCII -----------------------------------------------------
# ...
 2793.35000    3.00000    0.16469    0.17593    0.08547
 2793.50000    3.00000    0.15895    0.18050    0.09238
 2793.65000    3.00000    0.15537    0.18893    0.08861
 2793.80000    3.00000    0.17002    0.18987    0.08520
 2793.95000    3.00000    0.16689    0.19596    0.08246
 2794.10000    3.00000    0.17237    0.20039    0.07902
 2794.25000    3.00000    0.17751    0.19795    0.08551
 2794.40000    2.00000    0.22062    0.95000    0.08673
 2794.55000    2.00000    0.21763    0.95000    0.08790
 2794.70000    2.00000    0.22314    0.95000    0.09033
 2794.85000    2.00000    0.21589    0.95000    0.08799
 2795.00000    2.00000    0.21682    0.95000    0.08759
 2795.15000    2.00000    0.23010    0.95000    0.09478
 2795.30000    2.00000    0.22473    0.95000    0.09149
 2795.45000    2.00000    0.21997    0.95000    0.09482
 2795.60000    2.00000    0.21918    0.95000    0.09221
 2795.75000    2.00000    0.21515    0.95000    0.09851
 2795.90000    2.00000    0.21955    0.95000    0.09554
 2796.05000    2.00000    0.22077    0.95000    0.09326
 2796.20000    2.00000    0.21676    0.95000    0.09493
 2796.35000    3.00000    0.22136    0.18649    0.09530
 2796.50000    3.00000    0.21038    0.19187    0.10149
 2796.65000    3.00000    0.20879    0.18864    0.10764
 2796.80000    3.00000    0.20112    0.17498    0.10749
 2796.95000    3.00000    0.21637    0.16803    0.10876
 2797.10000    3.00000    0.21566    0.15876    0.10747
 2797.25000    3.00000    0.18560    0.15090    0.10713
 2797.40000    3.00000    0.19173    0.14741    0.10650
 2797.55000    3.00000    0.19650    0.14910    0.10015
 2797.70000    3.00000    0.20174    0.14805    0.10359
 2797.85000    3.00000    0.18365    0.14848    0.10447
 2798.00000    3.00000    0.19325    0.13646    0.10271
 2798.15000    3.00000    0.21568    0.12814    0.10168
 2798.30000    3.00000    0.20166    0.12712    0.10437
 2798.45000    3.00000    0.18598    0.12229    0.10297
 2798.60000    3.00000    0.17946    0.11556    0.10831
 2798.75000    3.00000    0.17504    0.11463    0.11815
 2798.90000    3.00000    0.16356    0.12782    0.11425
 2799.05000    3.00000    0.17758    0.12903    0.11069
 2799.20000    3.00000    0.17442    0.12484    0.10754
 2799.35000    3.00000    0.18435    0.13369    0.10913
 2799.50000    3.00000    0.19868    0.12829    0.10665
 2799.65000    3.00000    0.21219    0.12707    0.10266
 2799.80000    3.00000    0.21504    0.11937    0.10470
 2799.95000    3.00000    0.22644    0.11895    0.10524
 2800.00000    1.00000    0.09389    0.95284    0.44780
 2800.15000    1.00000    0.09522    0.94893    0.44511
 2800.30000    1.00000    0.09497    0.94921    0.45330
 2800.45000    1.00000    0.09319    0.95136    0.45598
 2800.60000    1.00000    0.09048    0.94923    0.44968
 2800.75000    1.00000    0.08922    0.94981    0.44474
 2800.90000    1.00000    0.08600    0.94985    0.44488
 2801.05000    1.00000    0.08411    0.95057    0.44626
 2801.20000    1.00000    0.08207    0.94804    0.44540
 2801.35000    1.00000    0.08254    0.95912    0.44847
 2801.50000    1.00000    0.08051    0.95416    0.44797
 2801.65000    1.00000    0.08055    0.94752    0.44992
 2801.80000    1.00000    0.07277    0.94825    0.44046
 2801.95000    1.00000    0.07928    0.94895    0.44377
 2802.10000    1.00000    0.08393    0.94555    0.43763
 2802.25000    1.00000    0.09024    0.95506    0.43729
 2802.40000    1.00000    0.08712    0.95296    0.42999
 2802.55000    1.00000    0.08433    0.95406    0.43527
 2802.70000    2.00000    0.17692    0.95000    0.08298
 2802.85000    2.00000    0.17570    0.95000    0.08064
 2803.00000    2.00000    0.19612    0.95000    0.07615
 2803.15000    2.00000    0.18999    0.95000    0.09281
 2803.30000    2.00000    0.18949    0.95000    0.09291
 2803.45000    2.00000    0.19823    0.95000    0.09673
 2803.60000    2.00000    0.20567    0.95000    0.10695
 2803.75000    2.00000    0.20954    0.95000    0.09886
 2803.90000    2.00000    0.20022    0.95000    0.09200
 2804.05000    2.00000    0.21356    0.95000    0.09072
 2804.20000    2.00000    0.22761    0.95000    0.09136
 2804.35000    2.00000    0.21716    0.95000    0.09044
 2804.50000    2.00000    0.21356    0.95000    0.09207
 2804.65000    2.00000    0.21097    0.95000    0.08948
 2804.80000    2.00000    0.21438    0.95000    0.08238
 2804.95000    2.00000    0.20917    0.95000    0.08554
 2805.10000    2.00000    0.21800    0.95000    0.08685
 2805.25000    2.00000    0.20997    0.95000    0.08259
 2805.40000    2.00000    0.21367    0.95000    0.08606
 2805.55000    2.00000    0.21174    0.95000    0.08451
 2805.70000    2.00000    0.21986    0.95000    0.08115
 2805.85000    2.00000    0.20989    0.95000    0.08381
 2806.00000    2.00000    0.22082    0.95000    0.07509
 2806.15000    2.00000    0.21816    0.95000    0.07802
 2806.30000    2.00000    0.21334    0.95000    0.08074
 2806.45000    2.00000    0.20095    0.95000    0.08174
 2806.60000    2.00000    0.18915    0.95000    0.08458
 2806.75000    2.00000    0.19485    0.95000    0.08350
 2806.90000    2.00000    0.18600    0.95000    0.08111
 2807.05000    2.00000    0.18983    0.95000    0.07664
 2807.20000    2.00000    0.17869    0.95000    0.07938
 2807.35000    2.00000    0.17266    0.95000    0.07535
 2807.50000    2.00000    0.16977    0.95000    0.08243
 2807.65000    2.00000    0.18123    0.95000    0.08112
 2807.80000    2.00000    0.18290    0.95000    0.08048
 2807.95000    2.00000    0.18650    0.95000    0.07850
 2808.10000    2.00000    0.18896    0.95000    0.07710
 2808.25000    2.00000    0.18146    0.95000    0.07792
 2808.40000    2.00000    0.17982    0.95000    0.08392
 2808.55000    2.00000    0.16642    0.95000    0.08693
 2808.70000    2.00000    0.18982    0.95000    0.07772
 2808.85000    3.00000    0.19919    0.18400    0.06716
 2809.00000    3.00000    0.18889    0.19069    0.06628
 2809.15000    3.00000    0.17796    0.18383    0.07097
 2809.30000    3.00000    0.19040    0.18153    0.06922
 2809.45000    3.00000    0.18606    0.18056    0.07230
 2809.60000    3.00000    0.20517    0.19019    0.07270
 2809.75000    3.00000    0.19960    0.18413    0.06269
 2809.90000    3.00000    0.19561    0.17614    0.05722
 2810.05000    3.00000    0.18856    0.18445    0.06444
 2810.20000    3.00000    0.21692    0.16597    0.06070
 2810.35000    1.00000    0.09639    0.95244    0.45517
 2810.50000    1.00000    0.09375    0.94136    0.46309
 2810.65000    1.00000    0.09284    0.94672    0.46187
 2810.80000    1.00000    0.08646    0.94640    0.45909
 2810.95000    1.00000    0.08179    0.95124    0.45950
 2811.10000    1.00000    0.09160    0.94700    0.46462
 2811.25000    1.00000    0.09115    0.95361    0.46592
 2811.40000    1.00000    0.09199    0.94855    0.46437
 2811.55000    1.00000    0.09239    0.96105    0.46442
 2811.70000    1.00000    0.09455    0.95627    0.45679
 2811.85000    2.00000    0.19136    0.95000    0.07995
 2812.00000    2.00000    0.17501    0.95000    0.08042
 2812.15000    2.00000    0.17684    0.95000    0.07712
 2812.30000    2.00000    0.17658    0.95000    0.07020
 2812.45000    2.00000    0.18701    0.95000    0.05985
 2812.60000    2.00000    0.17650    0.95000    0.05370
 2812.75000    2.00000    0.16895    0.95000    0.05562
 2812.90000    2.00000    0.16445    0.95000    0.05248
 2813.05000    2.00000    0.16316    0.95000    0.05277
 2813.20000    2.00000    0.17046    0.95000    0.05349
 2813.35000    2.00000    0.15907    0.95000    0.05808
 2813.50000    2.00000    0.17156    0.95000    0.05960
 2813.65000    2.00000    0.18770    0.95000    0.06535
 2813.80000    2.00000    0.19516    0.95000    0.06631
 2813.95000    2.00000    0.19509    0.95000    0.06201
 2814.10000    2.00000    0.20189    0.95000    0.05634
 2814.25000    2.00000    0.21366    0.95000    0.05172
 2814.40000    2.00000    0.22191    0.95000    0.04802
 2814.55000    2.00000    0.21372    0.95000    0.04870
