~Version ---------------------------------------------------
VERS.   2.0 : CWLS log ASCII Standard -VERSION 2.0
WRAP.    NO : One line per depth step
DLM . SPACE : Column Data Section Delimiter
~Well ------------------------------------------------------
STRT.m                  2000.0 : START DEPTH
STOP.m      3199.9500000001212 : STOP DEPTH
STEP.m     0.15000000000009095 : STEP
NULL.                 -9999.25 : NULL VALUE
COMP.                          : COMPANY
WELL. pseudowell 2856667402688 : WELL
FLD .                          : FIELD
LOC .                          : LOCATION
PROV.                          : PROVINCE
CNTY.                          : COUNTY
STAT.                          : STATE
CTRY.                          : COUNTRY
SRVC.                          : SERVICE COMPANY
DATE.      2023-05-26 16:58:03 : DATE
UWI .                          : UNIQUE WELL ID
API .                          : API NUMBER
~Curve Information -----------------------------------------
DEPTH .m              : 
FACIES.dimensionless  : 
PHI   .fraction       : 
SW    .fraction       : 
Vclay .fraction       : 
~Params ----------------------------------------------------
~Other -----------------------------------------------------
Data exported from RazorBill, (C) LTrace, 2023
Input file: None
~ASCII -----------------------------------------------------
# ...
 3029.10000    1.00000    0.09599    0.95708    0.42236
 3029.25000    1.00000    0.09581    0.95063    0.42200
 3029.40000    1.00000    0.08432    0.95867    0.41220
 3029.55000    1.00000    0.07954    0.94858    0.41254
 3029.70000    1.00000    0.08259    0.95447    0.41066
 3029.85000    1.00000    0.08817    0.95296    0.41775
 3030.00000    1.00000    0.08606    0.94538    0.41650
 3030.15000    1.00000    0.08921    0.95893    0.41739
 3030.30000    1.00000    0.08875    0.94340    0.41912
 3030.45000    1.00000    0.08913    0.94799    0.41990
 3030.60000    1.00000    0.09051    0.95019    0.41673
 3030.75000    1.00000    0.09813    0.95202    0.41415
 3030.90000    1.00000    0.09391    0.95147    0.41977
 3031.05000    1.00000    0.09735    0.94833    0.42354
 3031.20000    1.00000    0.10240    0.95264    0.42556
 3031.35000    1.00000    0.10536    0.95147    0.43212
 3031.50000    1.00000    0.10578    0.94446    0.43355
 3031.65000    1.00000    0.10072    0.95295    0.42581
 3031.80000    1.00000    0.09549    0.94660    0.42200
 3031.95000    1.00000    0.08865    0.94286    0.41398
 3032.10000    1.00000    0.09126    0.95225    0.41027
 3032.25000    1.00000    0.08370    0.94801    0.41115
 3032.40000    1.00000    0.08891    0.94871    0.40590
 3032.55000    1.00000    0.09423    0.95232    0.40671
 3032.70000    1.00000    0.10065    0.94338    0.41501
 3032.85000    1.00000    0.09944    0.95564    0.41879
 3033.00000    1.00000    0.09450    0.94192    0.42243
 3033.15000    1.00000    0.09557    0.95059    0.43117
 3033.30000    1.00000    0.09110    0.95101    0.43005
 3033.45000    1.00000    0.09303    0.96145    0.43970
 3033.60000    1.00000    0.09328    0.95003    0.43091
 3033.75000    1.00000    0.08437    0.94700    0.43381
 3033.90000    1.00000    0.08717    0.95140    0.43096
 3034.05000    1.00000    0.08724    0.95116    0.44066
 3034.20000    1.00000    0.08282    0.95164    0.44474
 3034.35000    1.00000    0.08918    0.95270    0.44892
 3034.50000    1.00000    0.09182    0.95749    0.45142
 3034.65000    1.00000    0.09243    0.94834    0.45199
 3034.80000    1.00000    0.09278    0.93850    0.44661
 3034.95000    1.00000    0.09624    0.94966    0.44698
 3035.10000    1.00000    0.09806    0.95598    0.44433
 3035.25000    1.00000    0.09951    0.94655    0.44221
 3035.40000    1.00000    0.09347    0.95504    0.44481
 3035.55000    1.00000    0.09364    0.95440    0.44856
 3035.70000    1.00000    0.09353    0.95201    0.44417
 3035.85000    1.00000    0.08354    0.95335    0.44825
 3036.00000    1.00000    0.07952    0.95136    0.44744
 3036.15000    1.00000    0.08645    0.94545    0.45216
 3036.30000    1.00000    0.08110    0.94976    0.45539
 3036.45000    1.00000    0.08920    0.94908    0.46111
 3036.60000    1.00000    0.09068    0.95225    0.45929
 3036.75000    1.00000    0.09779    0.95578    0.45972
 3036.90000    1.00000    0.10274    0.95317    0.47063
 3037.05000    1.00000    0.10453    0.95753    0.46833
 3037.20000    1.00000    0.09913    0.94962    0.46317
 3037.35000    1.00000    0.09836    0.95597    0.46017
 3037.50000    1.00000    0.09990    0.95226    0.45695
 3037.65000    1.00000    0.10247    0.95304    0.45813
 3037.80000    1.00000    0.10656    0.94629    0.46291
 3037.95000    1.00000    0.10258    0.94697    0.46048
 3038.10000    1.00000    0.10048    0.95721    0.45833
 3038.25000    1.00000    0.10644    0.94332    0.45135
 3038.40000    1.00000    0.10014    0.94875    0.44374
 3038.55000    1.00000    0.09998    0.96026    0.43144
 3038.70000    1.00000    0.09791    0.94549    0.42688
 3038.85000    1.00000    0.10054    0.95343    0.42092
 3039.00000    1.00000    0.10102    0.95136    0.42452
 3039.15000    1.00000    0.10022    0.93850    0.42902
 3039.30000    1.00000    0.09849    0.95409    0.43083
 3039.45000    1.00000    0.09667    0.95130    0.43390
 3039.60000    1.00000    0.10125    0.94824    0.43733
 3039.75000    1.00000    0.10183    0.95842    0.43521
 3039.90000    1.00000    0.09931    0.94867    0.42836
 3040.05000    1.00000    0.09478    0.95417    0.43020
 3040.20000    1.00000    0.08749    0.94573    0.43109
 3040.35000    1.00000    0.09161    0.95472    0.42765
 3040.50000    1.00000    0.09299    0.94253    0.42133
 3040.65000    1.00000    0.09594    0.94400    0.42072
 3040.80000    1.00000    0.10119    0.95668    0.42447
 3040.95000    1.00000    0.10158    0.95033    0.42099
 3041.10000    1.00000    0.10561    0.95521    0.42011
 3041.25000    1.00000    0.09981    0.93977    0.42141
 3041.40000    1.00000    0.09877    0.95357    0.42600
 3041.55000    1.00000    0.09691    0.94966    0.43122
 3041.70000    1.00000    0.09312    0.94747    0.43530
 3041.85000    1.00000    0.09408    0.95811    0.42949
 3042.00000    1.00000    0.09705    0.95171    0.41783
 3042.15000    1.00000    0.10193    0.95390    0.41969
 3042.30000    1.00000    0.10117    0.95422    0.42318
 3042.45000    1.00000    0.09672    0.94626    0.40991
 3042.60000    1.00000    0.09376    0.95288    0.40801
 3042.75000    1.00000    0.09106    0.94131    0.41433
 3042.90000    1.00000    0.09296    0.95748    0.40300
 3043.05000    1.00000    0.09408    0.95871    0.39949
 3043.20000    1.00000    0.09563    0.95130    0.40240
 3043.35000    1.00000    0.09702    0.95759    0.41423
 3043.50000    1.00000    0.08982    0.95086    0.41148
 3043.65000    1.00000    0.09321    0.94543    0.41188
 3043.80000    1.00000    0.09124    0.94378    0.41649
 3043.95000    1.00000    0.08834    0.95338    0.41393
 3044.10000    1.00000    0.08778    0.94957    0.41610
 3044.25000    1.00000    0.07823    0.94495    0.41673
 3044.40000    1.00000    0.07384    0.95123    0.41461
 3044.55000    1.00000    0.07287    0.94727    0.41883
 3044.70000    1.00000    0.07185    0.94687    0.42386
 3044.85000    1.00000    0.07887    0.95133    0.42707
 3045.00000    1.00000    0.07925    0.95393    0.42638
 3045.15000    1.00000    0.08369    0.95012    0.42575
 3045.30000    1.00000    0.08736    0.96041    0.42154
 3045.45000    1.00000    0.08327    0.94494    0.41623
 3045.60000    1.00000    0.09806    0.95361    0.41889
 3045.75000    1.00000    0.09952    0.94765    0.41878
 3045.90000    1.00000    0.10088    0.94099    0.41546
 3046.05000    1.00000    0.10225    0.95126    0.41592
 3046.20000    1.00000    0.09968    0.95297    0.41990
 3046.35000    1.00000    0.10645    0.95108    0.41556
 3046.50000    1.00000    0.10086    0.95254    0.41500
 3046.65000    1.00000    0.10507    0.95163    0.41387
 3046.80000    1.00000    0.10702    0.94629    0.41672
 3046.95000    1.00000    0.11454    0.94372    0.42035
 3047.10000    1.00000    0.10552    0.93962    0.42577
 3047.25000    1.00000    0.10718    0.94387    0.42336
 3047.40000    1.00000    0.10816    0.94536    0.41559
 3047.55000    1.00000    0.10948    0.94673    0.41447
 3047.70000    1.00000    0.11427    0.95352    0.41933
 3047.85000    1.00000    0.11605    0.94475    0.42011
 3048.00000    1.00000    0.12615    0.95715    0.41664
 3048.15000    1.00000    0.12610    0.94443    0.41919
 3048.30000    1.00000    0.13083    0.95509    0.42267
 3048.45000    1.00000    0.12877    0.95063    0.42824
 3048.60000    1.00000    0.12512    0.95051    0.43207
 3048.75000    1.00000    0.12321    0.95140    0.43500
 3048.90000    1.00000    0.12203    0.94722    0.43659
 3049.05000    1.00000    0.12074    0.94896    0.44017
 3049.20000    1.00000    0.11490    0.94921    0.43522
 3049.35000    1.00000    0.10955    0.94415    0.43374
 3049.50000    1.00000    0.10470    0.93838    0.43229
 3049.65000    1.00000    0.10789    0.95393    0.42904
 3049.80000    1.00000    0.10540    0.93948    0.42253
 3049.95000    1.00000    0.10474    0.94742    0.42941
 3050.10000    1.00000    0.10105    0.95559    0.42554
 3050.25000    1.00000    0.09613    0.95181    0.42384
 3050.40000    1.00000    0.09810    0.95209    0.42672
