~Version ---------------------------------------------------
VERS.   2.0 : CWLS log ASCII Standard -VERSION 2.0
WRAP.    NO : One line per depth step
DLM . SPACE : Column Data Section Delimiter
~Well ------------------------------------------------------
STRT.m                  2000.0 : START DEPTH
STOP.m      3199.9500000001212 : STOP DEPTH
STEP.m     0.15000000000009095 : STEP
NULL.                 -9999.25 : NULL VALUE
COMP.                          : COMPANY
WELL. pseudowell 2856667402688 : WELL
FLD .                          : FIELD
LOC .                          : LOCATION
PROV.                          : PROVINCE
CNTY.                          : COUNTY
STAT.                          : STATE
CTRY.                          : COUNTRY
SRVC.                          : SERVICE COMPANY
DATE.      2023-05-26 16:58:03 : DATE
UWI .                          : UNIQUE WELL ID
API .                          : API NUMBER
~Curve Information -----------------------------------------
DEPTH .m              : 
FACIES.dimensionless  : 
PHI   .fraction       : 
SW    .fraction       : 
Vclay .fraction       : 
~Params ----------------------------------------------------
~Other -----------------------------------------------------
Data exported from RazorBill, (C) LTrace, 2023
Input file: None
~ASCII -----------------------------------------------------
# ...
 2386.00000    2.00000    0.16237    0.95000    0.07008
 2386.15000    2.00000    0.16599    0.95000    0.06323
 2386.30000    2.00000    0.14503    0.95000    0.06601
 2386.45000    2.00000    0.14789    0.95000    0.06350
 2386.60000    2.00000    0.14533    0.95000    0.06510
 2386.75000    2.00000    0.13174    0.95000    0.06124
 2386.90000    2.00000    0.14476    0.95000    0.06459
 2387.05000    2.00000    0.14850    0.95000    0.07110
 2387.20000    2.00000    0.16656    0.95000    0.07292
 2387.35000    2.00000    0.17144    0.95000    0.07426
 2387.50000    2.00000    0.16944    0.95000    0.07111
 2387.65000    2.00000    0.15771    0.95000    0.06826
 2387.80000    2.00000    0.15594    0.95000    0.06197
 2387.95000    2.00000    0.16053    0.95000    0.06017
 2388.10000    2.00000    0.17833    0.95000    0.05958
 2388.25000    2.00000    0.19959    0.95000    0.04903
 2388.40000    2.00000    0.17195    0.95000    0.04367
 2388.55000    2.00000    0.17228    0.95000    0.03907
 2388.70000    2.00000    0.16656    0.95000    0.04037
 2388.85000    2.00000    0.18050    0.95000    0.04291
 2389.00000    2.00000    0.18786    0.95000    0.04104
 2389.15000    2.00000    0.19071    0.95000    0.03848
 2389.30000    2.00000    0.19807    0.95000    0.03753
 2389.45000    2.00000    0.20629    0.95000    0.03617
 2389.60000    2.00000    0.22270    0.95000    0.03594
 2389.75000    2.00000    0.23275    0.95000    0.03363
 2389.90000    2.00000    0.22661    0.95000    0.03406
 2390.05000    2.00000    0.23695    0.95000    0.03668
 2390.20000    2.00000    0.21633    0.95000    0.03200
 2390.35000    2.00000    0.20649    0.95000    0.03241
 2390.50000    2.00000    0.20911    0.95000    0.03222
 2390.65000    2.00000    0.19619    0.95000    0.02804
 2390.80000    2.00000    0.20282    0.95000    0.03079
 2390.95000    2.00000    0.22394    0.95000    0.02296
 2391.10000    2.00000    0.21484    0.95000    0.03066
 2391.25000    2.00000    0.20569    0.95000    0.01541
 2391.40000    2.00000    0.22387    0.95000    0.01571
 2391.55000    2.00000    0.25547    0.95000    0.01910
 2391.70000    2.00000    0.25679    0.95000    0.02292
 2391.85000    2.00000    0.25242    0.95000    0.02472
 2392.00000    2.00000    0.25067    0.95000    0.03039
 2392.15000    2.00000    0.25362    0.95000    0.02640
 2392.30000    2.00000    0.23954    0.95000    0.03215
 2392.45000    2.00000    0.24653    0.95000    0.03197
 2392.60000    2.00000    0.23969    0.95000    0.03039
 2392.75000    2.00000    0.23417    0.95000    0.01956
 2392.90000    2.00000    0.22982    0.95000    0.01271
 2393.05000    2.00000    0.24790    0.95000    0.01527
 2393.20000    2.00000    0.24181    0.95000    0.02032
 2393.35000    2.00000    0.22812    0.95000    0.02504
 2393.50000    2.00000    0.24181    0.95000    0.03225
 2393.65000    2.00000    0.22576    0.95000    0.03218
 2393.80000    2.00000    0.21579    0.95000    0.03140
 2393.95000    2.00000    0.21038    0.95000    0.02974
 2394.10000    2.00000    0.21272    0.95000    0.02327
 2394.25000    2.00000    0.22245    0.95000    0.02631
 2394.40000    2.00000    0.23815    0.95000    0.02630
 2394.55000    2.00000    0.25054    0.95000    0.03232
 2394.70000    2.00000    0.23976    0.95000    0.02507
 2394.85000    2.00000    0.25647    0.95000    0.02163
 2395.00000    2.00000    0.24837    0.95000    0.01637
 2395.15000    2.00000    0.23868    0.95000    0.01651
 2395.30000    2.00000    0.24036    0.95000    0.02490
 2395.45000    2.00000    0.23448    0.95000    0.02296
 2395.60000    2.00000    0.25803    0.95000    0.02501
 2395.75000    2.00000    0.26145    0.95000    0.02312
 2395.90000    2.00000    0.24687    0.95000    0.01639
 2396.05000    2.00000    0.22117    0.95000    0.00572
 2396.20000    2.00000    0.23064    0.95000    0.00135
 2396.35000    2.00000    0.22215    0.95000    0.00154
 2396.50000    2.00000    0.21076    0.95000   -0.00090
 2396.65000    2.00000    0.20938    0.95000   -0.00336
 2396.80000    2.00000    0.21251    0.95000   -0.00673
 2396.95000    2.00000    0.20302    0.95000   -0.00176
 2397.10000    2.00000    0.22219    0.95000   -0.00465
 2397.25000    2.00000    0.24791    0.95000   -0.01156
 2397.40000    2.00000    0.25434    0.95000   -0.01227
 2397.55000    2.00000    0.24057    0.95000   -0.00491
 2397.70000    2.00000    0.23941    0.95000    0.00269
 2397.85000    2.00000    0.24486    0.95000    0.00188
 2398.00000    2.00000    0.24400    0.95000   -0.00023
 2398.15000    2.00000    0.21690    0.95000   -0.00396
 2398.30000    2.00000    0.20515    0.95000   -0.00531
 2398.45000    2.00000    0.22413    0.95000   -0.00738
 2398.60000    2.00000    0.21183    0.95000   -0.00367
 2398.75000    2.00000    0.22503    0.95000   -0.00130
 2398.90000    2.00000    0.22508    0.95000    0.00688
 2399.05000    2.00000    0.25164    0.95000    0.01436
 2399.20000    2.00000    0.27250    0.95000    0.00175
 2399.35000    2.00000    0.27136    0.95000    0.00004
 2399.50000    2.00000    0.26634    0.95000   -0.00317
 2399.65000    2.00000    0.27405    0.95000   -0.00751
 2399.80000    2.00000    0.24955    0.95000   -0.00600
 2399.95000    2.00000    0.24580    0.95000   -0.00088
 2400.00000    2.00000    0.20061    0.95000    0.05619
 2400.15000    2.00000    0.21099    0.95000    0.05558
 2400.30000    2.00000    0.20681    0.95000    0.04860
 2400.45000    2.00000    0.22602    0.95000    0.05084
 2400.60000    2.00000    0.23370    0.95000    0.05066
 2400.75000    1.00000    0.11444    0.95051    0.44755
 2400.90000    1.00000    0.11195    0.94854    0.43978
 2401.05000    1.00000    0.11541    0.94864    0.43779
 2401.20000    2.00000    0.21926    0.95000    0.05331
 2401.35000    1.00000    0.10328    0.94409    0.43726
 2401.50000    1.00000    0.10412    0.94367    0.42952
 2401.65000    1.00000    0.10045    0.94275    0.42877
 2401.80000    1.00000    0.10105    0.94257    0.43570
 2401.95000    2.00000    0.23009    0.95000    0.05709
 2402.10000    1.00000    0.10103    0.93941    0.42918
 2402.25000    1.00000    0.09648    0.93985    0.42974
 2402.40000    1.00000    0.09666    0.94052    0.42917
 2402.55000    1.00000    0.09838    0.94356    0.42970
 2402.70000    2.00000    0.24408    0.95000    0.05125
 2402.85000    2.00000    0.24878    0.95000    0.05427
 2403.00000    1.00000    0.09117    0.94324    0.42379
 2403.15000    1.00000    0.09580    0.94244    0.42212
 2403.30000    1.00000    0.09794    0.94210    0.42359
 2403.45000    2.00000    0.20534    0.95000    0.05021
 2403.60000    2.00000    0.19255    0.95000    0.05457
 2403.75000    2.00000    0.19331    0.95000    0.05229
 2403.90000    2.00000    0.18428    0.95000    0.05738
 2404.05000    2.00000    0.18130    0.95000    0.05259
 2404.20000    2.00000    0.17059    0.95000    0.04930
 2404.35000    2.00000    0.17549    0.95000    0.05041
 2404.50000    2.00000    0.17663    0.95000    0.04749
 2404.65000    2.00000    0.17708    0.95000    0.04042
 2404.80000    2.00000    0.19655    0.95000    0.04687
 2404.95000    2.00000    0.17849    0.95000    0.04863
 2405.10000    2.00000    0.18401    0.95000    0.04992
 2405.25000    2.00000    0.19057    0.95000    0.04670
 2405.40000    2.00000    0.20259    0.95000    0.04359
 2405.55000    2.00000    0.21089    0.95000    0.04247
 2405.70000    2.00000    0.19651    0.95000    0.03479
 2405.85000    2.00000    0.18656    0.95000    0.03671
 2406.00000    1.00000    0.10400    0.94841    0.40303
 2406.15000    1.00000    0.10874    0.94888    0.40892
 2406.30000    2.00000    0.19473    0.95000    0.03347
 2406.45000    2.00000    0.21256    0.95000    0.03495
 2406.60000    2.00000    0.20741    0.95000    0.03926
 2406.75000    1.00000    0.10454    0.94932    0.41580
 2406.90000    1.00000    0.11267    0.94935    0.41306
 2407.05000    1.00000    0.10961    0.95062    0.41634
 2407.20000    1.00000    0.10996    0.95208    0.41557
