~Version ---------------------------------------------------
VERS.   2.0 : CWLS log ASCII Standard -VERSION 2.0
WRAP.    NO : One line per depth step
DLM . SPACE : Column Data Section Delimiter
~Well ------------------------------------------------------
STRT.m                  2000.0 : START DEPTH
STOP.m      3199.9500000001212 : STOP DEPTH
STEP.m     0.15000000000009095 : STEP
NULL.                 -9999.25 : NULL VALUE
COMP.                          : COMPANY
WELL. pseudowell 2856667402688 : WELL
FLD .                          : FIELD
LOC .                          : LOCATION
PROV.                          : PROVINCE
CNTY.                          : COUNTY
STAT.                          : STATE
CTRY.                          : COUNTRY
SRVC.                          : SERVICE COMPANY
DATE.      2023-05-26 16:58:03 : DATE
UWI .                          : UNIQUE WELL ID
API .                          : API NUMBER
~Curve Information -----------------------------------------
DEPTH .m              : 
FACIES.dimensionless  : 
PHI   .fraction       : 
SW    .fraction       : 
Vclay .fraction       : 
~Params ----------------------------------------------------
~Other -----------------------------------------------------
Data exported from RazorBill, (C) LTrace, 2023
Input file: None
~ASCII -----------------------------------------------------
# ...
 2707.55000    2.00000    0.19416    0.95000    0.07186
 2707.70000    2.00000    0.19305    0.95000    0.06778
 2707.85000    2.00000    0.18957    0.95000    0.06556
 2708.00000    2.00000    0.22102    0.95000    0.06791
 2708.15000    2.00000    0.20579    0.95000    0.07805
 2708.30000    2.00000    0.21478    0.95000    0.07378
 2708.45000    2.00000    0.23120    0.95000    0.08183
 2708.60000    2.00000    0.23062    0.95000    0.08707
 2708.75000    2.00000    0.22190    0.95000    0.08489
 2708.90000    2.00000    0.21692    0.95000    0.08372
 2709.05000    2.00000    0.21527    0.95000    0.08505
 2709.20000    2.00000    0.22159    0.95000    0.08194
 2709.35000    2.00000    0.20422    0.95000    0.07840
 2709.50000    2.00000    0.21748    0.95000    0.07486
 2709.65000    2.00000    0.21773    0.95000    0.06902
 2709.80000    2.00000    0.20824    0.95000    0.06958
 2709.95000    2.00000    0.21397    0.95000    0.07268
 2710.10000    2.00000    0.22158    0.95000    0.06863
 2710.25000    2.00000    0.23453    0.95000    0.07459
 2710.40000    2.00000    0.23195    0.95000    0.07132
 2710.55000    2.00000    0.22753    0.95000    0.06265
 2710.70000    2.00000    0.24981    0.95000    0.06047
 2710.85000    2.00000    0.25094    0.95000    0.05753
 2711.00000    2.00000    0.25238    0.95000    0.05475
 2711.15000    2.00000    0.22829    0.95000    0.05168
 2711.30000    2.00000    0.23872    0.95000    0.04703
 2711.45000    2.00000    0.23783    0.95000    0.05315
 2711.60000    2.00000    0.23081    0.95000    0.05618
 2711.75000    2.00000    0.23290    0.95000    0.05139
 2711.90000    2.00000    0.23273    0.95000    0.04287
 2712.05000    2.00000    0.21994    0.95000    0.04876
 2712.20000    2.00000    0.21593    0.95000    0.04886
 2712.35000    2.00000    0.21756    0.95000    0.04260
 2712.50000    2.00000    0.21133    0.95000    0.04221
 2712.65000    2.00000    0.21371    0.95000    0.02815
 2712.80000    2.00000    0.20946    0.95000    0.02547
 2712.95000    2.00000    0.21304    0.95000    0.02691
 2713.10000    2.00000    0.20242    0.95000    0.02319
 2713.25000    2.00000    0.20801    0.95000    0.03020
 2713.40000    2.00000    0.20738    0.95000    0.03617
 2713.55000    2.00000    0.21174    0.95000    0.03603
 2713.70000    2.00000    0.20845    0.95000    0.03352
 2713.85000    2.00000    0.20520    0.95000    0.03109
 2714.00000    2.00000    0.20393    0.95000    0.02393
 2714.15000    2.00000    0.21172    0.95000    0.02052
 2714.30000    2.00000    0.21423    0.95000    0.02412
 2714.45000    2.00000    0.21528    0.95000    0.02760
 2714.60000    2.00000    0.22242    0.95000    0.03355
 2714.75000    2.00000    0.22791    0.95000    0.02285
 2714.90000    2.00000    0.22282    0.95000    0.02773
 2715.05000    2.00000    0.23764    0.95000    0.02677
 2715.20000    2.00000    0.21611    0.95000    0.02953
 2715.35000    2.00000    0.20789    0.95000    0.03618
 2715.50000    2.00000    0.20607    0.95000    0.03334
 2715.65000    2.00000    0.19341    0.95000    0.03721
 2715.80000    2.00000    0.20561    0.95000    0.03505
 2715.95000    2.00000    0.21064    0.95000    0.03804
 2716.10000    2.00000    0.22969    0.95000    0.04192
 2716.25000    2.00000    0.22082    0.95000    0.05153
 2716.40000    2.00000    0.20524    0.95000    0.05191
 2716.55000    2.00000    0.19682    0.95000    0.05491
 2716.70000    2.00000    0.17447    0.95000    0.04474
 2716.85000    2.00000    0.16639    0.95000    0.04497
 2717.00000    2.00000    0.14171    0.95000    0.04528
 2717.15000    2.00000    0.14392    0.95000    0.04925
 2717.30000    2.00000    0.15408    0.95000    0.04872
 2717.45000    2.00000    0.17464    0.95000    0.05784
 2717.60000    2.00000    0.16736    0.95000    0.06180
 2717.75000    2.00000    0.16191    0.95000    0.06075
 2717.90000    2.00000    0.17073    0.95000    0.05808
 2718.05000    2.00000    0.17026    0.95000    0.05452
 2718.20000    2.00000    0.16185    0.95000    0.04833
 2718.35000    2.00000    0.16321    0.95000    0.04301
 2718.50000    1.00000    0.10000    0.94534    0.43614
 2718.65000    1.00000    0.10000    0.94558    0.42336
 2718.80000    3.00000    0.20767    0.12750    0.01624
 2718.95000    3.00000    0.19716    0.13212    0.01636
 2719.10000    1.00000    0.10000    0.94846    0.43163
 2719.25000    1.00000    0.10000    0.94734    0.42728
 2719.40000    1.00000    0.10000    0.94772    0.42761
 2719.55000    1.00000    0.10000    0.94926    0.42525
 2719.70000    1.00000    0.10000    0.95204    0.42551
 2719.85000    3.00000    0.20554    0.13850    0.01556
 2720.00000    3.00000    0.21925    0.13083    0.01585
 2720.15000    3.00000    0.21838    0.13068    0.01604
 2720.30000    3.00000    0.22402    0.13683    0.01474
 2720.45000    3.00000    0.24546    0.13841    0.01984
 2720.60000    3.00000    0.25488    0.13702    0.02158
 2720.75000    3.00000    0.25840    0.12603    0.01825
 2720.90000    3.00000    0.24844    0.12604    0.02284
 2721.05000    3.00000    0.24775    0.11922    0.02215
 2721.20000    1.00000    0.10000    0.94868    0.44596
 2721.35000    1.00000    0.10000    0.95037    0.44974
 2721.50000    1.00000    0.10000    0.94904    0.45798
 2721.65000    1.00000    0.10000    0.94891    0.45734
 2721.80000    1.00000    0.10000    0.94890    0.45696
 2721.95000    1.00000    0.10000    0.94978    0.46020
 2722.10000    1.00000    0.10000    0.94840    0.46097
 2722.25000    1.00000    0.10000    0.94915    0.46116
 2722.40000    1.00000    0.10000    0.95059    0.46456
 2722.55000    1.00000    0.10000    0.95159    0.46676
 2722.70000    1.00000    0.10000    0.95191    0.46723
 2722.85000    1.00000    0.10000    0.95204    0.46672
 2723.00000    1.00000    0.10000    0.95329    0.46938
 2723.15000    1.00000    0.10000    0.95164    0.47246
 2723.30000    1.00000    0.10000    0.95052    0.47049
 2723.45000    1.00000    0.10000    0.95073    0.46729
 2723.60000    1.00000    0.10000    0.94853    0.47143
 2723.75000    1.00000    0.10000    0.94761    0.46996
 2723.90000    1.00000    0.10000    0.94835    0.46747
 2724.05000    1.00000    0.10000    0.94624    0.47793
 2724.20000    1.00000    0.10000    0.94499    0.47426
 2724.35000    1.00000    0.10000    0.94260    0.47333
 2724.50000    1.00000    0.10000    0.94228    0.47102
 2724.65000    1.00000    0.10000    0.94176    0.47324
 2724.80000    1.00000    0.10000    0.94135    0.46716
 2724.95000    1.00000    0.10000    0.93899    0.46181
 2725.10000    1.00000    0.10000    0.93919    0.46407
 2725.25000    1.00000    0.10000    0.93849    0.45858
 2725.40000    1.00000    0.10000    0.93672    0.46013
 2725.55000    1.00000    0.10000    0.93611    0.46118
 2725.70000    1.00000    0.10000    0.93571    0.46793
 2725.85000    1.00000    0.10000    0.93738    0.46949
 2726.00000    2.00000    0.24537    0.95000    0.03668
 2726.15000    2.00000    0.23598    0.95000    0.03667
 2726.30000    2.00000    0.23031    0.95000    0.03674
 2726.45000    2.00000    0.20666    0.95000    0.04341
 2726.60000    1.00000    0.10000    0.94222    0.46511
 2726.75000    1.00000    0.10000    0.94165    0.46874
 2726.90000    1.00000    0.10000    0.94312    0.45966
 2727.05000    1.00000    0.10000    0.94533    0.46524
 2727.20000    2.00000    0.20255    0.95000    0.03094
 2727.35000    2.00000    0.20755    0.95000    0.02915
 2727.50000    2.00000    0.21200    0.95000    0.02834
 2727.65000    2.00000    0.22831    0.95000    0.01937
 2727.80000    2.00000    0.21378    0.95000    0.02789
 2727.95000    2.00000    0.21154    0.95000    0.02952
 2728.10000    2.00000    0.21237    0.95000    0.01964
 2728.25000    2.00000    0.21542    0.95000    0.02111
 2728.40000    2.00000    0.21764    0.95000    0.01397
 2728.55000    2.00000    0.22076    0.95000    0.01468
 2728.70000    2.00000    0.23693    0.95000    0.01101
 2728.85000    2.00000    0.22465    0.95000    0.01268
