~Version ---------------------------------------------------
VERS.   2.0 : CWLS log ASCII Standard -VERSION 2.0
WRAP.    NO : One line per depth step
DLM . SPACE : Column Data Section Delimiter
~Well ------------------------------------------------------
STRT.m                  2000.0 : START DEPTH
STOP.m      3199.9500000001212 : STOP DEPTH
STEP.m     0.15000000000009095 : STEP
NULL.                 -9999.25 : NULL VALUE
COMP.                          : COMPANY
WELL. pseudowell 2856667402688 : WELL
FLD .                          : FIELD
LOC .                          : LOCATION
PROV.                          : PROVINCE
CNTY.                          : COUNTY
STAT.                          : STATE
CTRY.                          : COUNTRY
SRVC.                          : SERVICE COMPANY
DATE.      2023-05-26 16:58:03 : DATE
UWI .                          : UNIQUE WELL ID
API .                          : API NUMBER
~Curve Information -----------------------------------------
DEPTH .m              : 
FACIES.dimensionless  : 
PHI   .fraction       : 
SW    .fraction       : 
Vclay .fraction       : 
~Params ----------------------------------------------------
~Other -----------------------------------------------------
Data exported from RazorBill, (C) LTrace, 2023
Input file: None
~ASCII -----------------------------------------------------
 2000.00000    1.00000    0.08040    0.95009    0.45032
 2000.15000    1.00000    0.07843    0.94953    0.45251
 2000.30000    1.00000    0.07759    0.94939    0.45167
 2000.45000    1.00000    0.07774    0.94850    0.45043
 2000.60000    1.00000    0.07712    0.94884    0.44809
 2000.75000    1.00000    0.07717    0.94908    0.44228
 2000.90000    1.00000    0.06931    0.94927    0.43943
 2001.05000    1.00000    0.07348    0.94938    0.43625
 2001.20000    1.00000    0.06596    0.95022    0.43642
 2001.35000    1.00000    0.06480    0.94982    0.43006
 2001.50000    1.00000    0.05828    0.94995    0.42014
 2001.65000    1.00000    0.06168    0.94947    0.42215
 2001.80000    1.00000    0.06383    0.94940    0.41665
 2001.95000    1.00000    0.06751    0.94922    0.41325
 2002.10000    1.00000    0.07181    0.94918    0.41062
 2002.25000    1.00000    0.07127    0.94804    0.41310
 2002.40000    1.00000    0.07075    0.94802    0.40201
 2002.55000    1.00000    0.07280    0.94804    0.39916
 2002.70000    1.00000    0.07128    0.94873    0.39520
 2002.85000    1.00000    0.06574    0.94872    0.39411
 2003.00000    1.00000    0.06715    0.94769    0.39527
 2003.15000    1.00000    0.07107    0.94809    0.39924
 2003.30000    1.00000    0.06845    0.94823    0.39730
 2003.45000    1.00000    0.07511    0.94855    0.39442
 2003.60000    1.00000    0.07531    0.94893    0.39748
 2003.75000    1.00000    0.07052    0.94961    0.40041
 2003.90000    1.00000    0.07328    0.94887    0.39801
 2004.05000    1.00000    0.07288    0.94844    0.40313
 2004.20000    1.00000    0.08648    0.94850    0.39745
 2004.35000    1.00000    0.08633    0.94832    0.39292
 2004.50000    1.00000    0.08718    0.94951    0.39161
 2004.65000    1.00000    0.08466    0.94934    0.39405
 2004.80000    1.00000    0.07743    0.94932    0.39331
 2004.95000    1.00000    0.08265    0.95027    0.39837
 2005.10000    1.00000    0.07961    0.94947    0.39913
 2005.25000    1.00000    0.07579    0.94963    0.40364
 2005.40000    1.00000    0.07928    0.94930    0.41315
 2005.55000    1.00000    0.07822    0.94965    0.41710
 2005.70000    1.00000    0.07993    0.94897    0.42379
 2005.85000    1.00000    0.08432    0.94931    0.42194
 2006.00000    1.00000    0.08415    0.94908    0.42101
 2006.15000    1.00000    0.09896    0.94852    0.41640
 2006.30000    1.00000    0.10227    0.94880    0.40829
 2006.45000    1.00000    0.09870    0.94817    0.40322
 2006.60000    1.00000    0.09921    0.94902    0.39802
 2006.75000    1.00000    0.11179    0.94875    0.40199
 2006.90000    1.00000    0.10697    0.94921    0.40139
 2007.05000    1.00000    0.10601    0.94934    0.39815
 2007.20000    1.00000    0.11174    0.94845    0.40055
 2007.35000    1.00000    0.10351    0.94791    0.40690
 2007.50000    1.00000    0.10008    0.94806    0.40410
 2007.65000    1.00000    0.10320    0.94737    0.40375
 2007.80000    1.00000    0.10130    0.94676    0.40479
 2007.95000    1.00000    0.10576    0.94734    0.40142
 2008.10000    1.00000    0.10779    0.94718    0.41033
 2008.25000    1.00000    0.10660    0.94747    0.41133
 2008.40000    1.00000    0.11563    0.94708    0.41489
 2008.55000    1.00000    0.11461    0.94768    0.42323
 2008.70000    1.00000    0.11139    0.94786    0.43079
 2008.85000    1.00000    0.10526    0.94742    0.43727
 2009.00000    1.00000    0.10435    0.94648    0.42952
 2009.15000    1.00000    0.10468    0.94686    0.42664
 2009.30000    1.00000    0.10380    0.94666    0.42749
 2009.45000    1.00000    0.10647    0.94658    0.42961
 2009.60000    1.00000    0.10663    0.94623    0.43570
 2009.75000    1.00000    0.10631    0.94684    0.43940
 2009.90000    1.00000    0.10476    0.94668    0.44991
 2010.05000    1.00000    0.10121    0.94645    0.45057
 2010.20000    1.00000    0.10049    0.94713    0.44629
 2010.35000    1.00000    0.09864    0.94739    0.43982
 2010.50000    1.00000    0.10067    0.94755    0.43954
 2010.65000    1.00000    0.09798    0.94782    0.43434
 2010.80000    1.00000    0.09538    0.94793    0.43300
 2010.95000    1.00000    0.08943    0.94850    0.43855
 2011.10000    1.00000    0.09649    0.94852    0.43404
 2011.25000    1.00000    0.09320    0.94836    0.42818
 2011.40000    1.00000    0.09000    0.94794    0.42882
 2011.55000    1.00000    0.08840    0.94818    0.43793
 2011.70000    1.00000    0.08619    0.94835    0.45014
 2011.85000    1.00000    0.09350    0.94850    0.45643
 2012.00000    1.00000    0.09717    0.94835    0.45965
 2012.15000    1.00000    0.09280    0.94821    0.46207
 2012.30000    1.00000    0.08653    0.94830    0.45606
 2012.45000    1.00000    0.08688    0.94782    0.45582
 2012.60000    1.00000    0.08224    0.94782    0.45752
 2012.75000    1.00000    0.07980    0.94675    0.45898
 2012.90000    1.00000    0.07386    0.94735    0.46013
 2013.05000    1.00000    0.07829    0.94741    0.45389
 2013.20000    1.00000    0.07874    0.94705    0.45975
 2013.35000    1.00000    0.07744    0.94697    0.46750
 2013.50000    1.00000    0.07652    0.94714    0.46150
 2013.65000    1.00000    0.07935    0.94635    0.45552
 2013.80000    1.00000    0.08245    0.94606    0.44866
 2013.95000    1.00000    0.09415    0.94601    0.44200
 2014.10000    1.00000    0.09239    0.94544    0.44096
 2014.25000    1.00000    0.09518    0.94522    0.43717
 2014.40000    1.00000    0.09550    0.94511    0.43449
 2014.55000    1.00000    0.10456    0.94495    0.44018
 2014.70000    1.00000    0.11146    0.94434    0.43762
 2014.85000    1.00000    0.11048    0.94468    0.43714
 2015.00000    1.00000    0.11171    0.94428    0.43709
 2015.15000    1.00000    0.11108    0.94419    0.44594
 2015.30000    1.00000    0.11377    0.94500    0.45097
 2015.45000    1.00000    0.10555    0.94527    0.45594
 2015.60000    1.00000    0.10738    0.94593    0.44355
 2015.75000    1.00000    0.10260    0.94564    0.44511
 2015.90000    1.00000    0.10916    0.94531    0.44352
 2016.05000    1.00000    0.11170    0.94617    0.44418
 2016.20000    1.00000    0.10538    0.94689    0.44901
 2016.35000    1.00000    0.10348    0.94750    0.44685
 2016.50000    1.00000    0.10549    0.94728    0.44539
 2016.65000    1.00000    0.10835    0.94716    0.44585
 2016.80000    1.00000    0.10131    0.94692    0.43852
 2016.95000    1.00000    0.10082    0.94652    0.43781
 2017.10000    1.00000    0.10257    0.94710    0.43263
 2017.25000    1.00000    0.10462    0.94731    0.43203
 2017.40000    1.00000    0.10006    0.94759    0.43352
 2017.55000    1.00000    0.10029    0.94766    0.43406
 2017.70000    1.00000    0.09489    0.94788    0.43339
 2017.85000    1.00000    0.10041    0.94766    0.42658
 2018.00000    1.00000    0.09794    0.94806    0.42748
 2018.15000    1.00000    0.09693    0.94879    0.42384
 2018.30000    1.00000    0.09555    0.94860    0.42334
 2018.45000    1.00000    0.09704    0.94828    0.41664
 2018.60000    1.00000    0.09365    0.94859    0.41222
 2018.75000    1.00000    0.08515    0.94923    0.41318
 2018.90000    1.00000    0.08718    0.94912    0.41726
 2019.05000    1.00000    0.09198    0.94898    0.41048
 2019.20000    1.00000    0.09195    0.94871    0.41652
 2019.35000    1.00000    0.09650    0.94948    0.41775
 2019.50000    1.00000    0.09419    0.94986    0.41356
 2019.65000    1.00000    0.09078    0.94961    0.41401
 2019.80000    1.00000    0.09054    0.94999    0.41688
 2019.95000    1.00000    0.08986    0.94968    0.41455
 2020.10000    1.00000    0.09377    0.94966    0.41106
 2020.25000    1.00000    0.09612    0.94979    0.41085
 2020.40000    1.00000    0.10051    0.95056    0.40668
 2020.55000    1.00000    0.10506    0.94970    0.40912
 2020.70000    1.00000    0.10630    0.94939    0.41235
 2020.85000    1.00000    0.11030    0.95023    0.41340
 2021.00000    1.00000    0.11251    0.94998    0.41330
 2021.15000    1.00000    0.11012    0.94930    0.41560
 2021.30000    1.00000    0.10800    0.94947    0.41880
